[
    {
        "city": "Helsinki", 
        "admin": "Uusimaa", 
        "country": "Finland", 
        "population_proper": "558457", 
        "iso2": "FI", 
        "capital": "primary", 
        "lat": "60.175556", 
        "lng": "24.934167", 
        "population": "1115000"
    }, 
    {
        "city": "Tampere", 
        "admin": "Pirkanmaa", 
        "country": "Finland", 
        "population_proper": "202687", 
        "iso2": "FI", 
        "capital": "admin", 
        "lat": "61.5", 
        "lng": "23.75", 
        "population": "259279"
    }, 
    {
        "city": "Turku", 
        "admin": "Varsinais-Suomi", 
        "country": "Finland", 
        "population_proper": "174940", 
        "iso2": "FI", 
        "capital": "admin", 
        "lat": "60.45", 
        "lng": "22.283333", 
        "population": "175945"
    }, 
    {
        "city": "Oulu", 
        "admin": "Pohjois-Pohjanmaa", 
        "country": "Finland", 
        "population_proper": "128618", 
        "iso2": "FI", 
        "capital": "admin", 
        "lat": "65.016667", 
        "lng": "25.466667", 
        "population": "136752"
    }, 
    {
        "city": "Lahti", 
        "admin": "P\u00e4ij\u00e4t-H\u00e4me", 
        "country": "Finland", 
        "population_proper": "96190", 
        "iso2": "FI", 
        "capital": "admin", 
        "lat": "60.966667", 
        "lng": "25.666667", 
        "population": "98826"
    }, 
    {
        "city": "Jyv\u00e4skyl\u00e4", 
        "admin": "Keski-Suomi", 
        "country": "Finland", 
        "population_proper": "85026", 
        "iso2": "FI", 
        "capital": "admin", 
        "lat": "62.233333", 
        "lng": "25.733333", 
        "population": "98136"
    }, 
    {
        "city": "Kuopio", 
        "admin": "Pohjois-Savo", 
        "country": "Finland", 
        "population_proper": "89104", 
        "iso2": "FI", 
        "capital": "admin", 
        "lat": "62.9", 
        "lng": "27.683333", 
        "population": "91900"
    }, 
    {
        "city": "Pori", 
        "admin": "Satakunta", 
        "country": "Finland", 
        "population_proper": "66280", 
        "iso2": "FI", 
        "capital": "admin", 
        "lat": "61.483333", 
        "lng": "21.783333", 
        "population": "76772"
    }, 
    {
        "city": "Lappeenranta", 
        "admin": "Etel\u00e4-Karjala", 
        "country": "Finland", 
        "population_proper": "49757", 
        "iso2": "FI", 
        "capital": "admin", 
        "lat": "61.066667", 
        "lng": "28.183333", 
        "population": "59276"
    }, 
    {
        "city": "Vaasa", 
        "admin": "Pohjanmaa", 
        "country": "Finland", 
        "population_proper": "40846", 
        "iso2": "FI", 
        "capital": "admin", 
        "lat": "63.1", 
        "lng": "21.6", 
        "population": "57014"
    }, 
    {
        "city": "Joensuu", 
        "admin": "Pohjois-Karjala", 
        "country": "Finland", 
        "population_proper": "53388", 
        "iso2": "FI", 
        "capital": "admin", 
        "lat": "62.6", 
        "lng": "29.766667", 
        "population": "53388"
    }, 
    {
        "city": "H\u00e4meenlinna", 
        "admin": "Kanta-H\u00e4me", 
        "country": "Finland", 
        "population_proper": "47261", 
        "iso2": "FI", 
        "capital": "admin", 
        "lat": "61.0", 
        "lng": "24.45", 
        "population": "47261"
    }, 
    {
        "city": "Kokkola", 
        "admin": "Keski-Pohjanmaa", 
        "country": "Finland", 
        "population_proper": "46714", 
        "iso2": "FI", 
        "capital": "admin", 
        "lat": "63.833333", 
        "lng": "23.116667", 
        "population": "46714"
    }, 
    {
        "city": "Mikkeli", 
        "admin": "Etel\u00e4-Savo", 
        "country": "Finland", 
        "population_proper": "46550", 
        "iso2": "FI", 
        "capital": "admin", 
        "lat": "61.683333", 
        "lng": "27.25", 
        "population": "46550"
    }, 
    {
        "city": "Rovaniemi", 
        "admin": "Lappi", 
        "country": "Finland", 
        "population_proper": "25389", 
        "iso2": "FI", 
        "capital": "admin", 
        "lat": "66.5", 
        "lng": "25.716667", 
        "population": "34781"
    }, 
    {
        "city": "Kouvola", 
        "admin": "Kymenlaakso", 
        "country": "Finland", 
        "population_proper": "31133", 
        "iso2": "FI", 
        "capital": "admin", 
        "lat": "60.866667", 
        "lng": "26.7", 
        "population": "31133"
    }, 
    {
        "city": "Savonlinna", 
        "admin": "Etel\u00e4-Savo", 
        "country": "Finland", 
        "population_proper": "13114", 
        "iso2": "FI", 
        "capital": "minor", 
        "lat": "61.866667", 
        "lng": "28.883333", 
        "population": "27353"
    }, 
    {
        "city": "Kemi", 
        "admin": "Lappi", 
        "country": "Finland", 
        "population_proper": "11479", 
        "iso2": "FI", 
        "capital": "minor", 
        "lat": "65.733333", 
        "lng": "24.566667", 
        "population": "22641"
    }, 
    {
        "city": "Porvoo", 
        "admin": "Uusimaa", 
        "country": "Finland", 
        "population_proper": "12242", 
        "iso2": "FI", 
        "capital": "minor", 
        "lat": "60.4", 
        "lng": "25.666667", 
        "population": "12242"
    }, 
    {
        "city": "Kirkonkyl\u00e4", 
        "admin": "Lappi", 
        "country": "Finland", 
        "population_proper": "4091", 
        "iso2": "FI", 
        "capital": "", 
        "lat": "67.4", 
        "lng": "26.65", 
        "population": "8942"
    }, 
    {
        "city": "Kemij\u00e4rvi", 
        "admin": "Lappi", 
        "country": "Finland", 
        "population_proper": "8883", 
        "iso2": "FI", 
        "capital": "minor", 
        "lat": "66.666667", 
        "lng": "27.416667", 
        "population": "8883"
    }, 
    {
        "city": "Sodankyl\u00e4", 
        "admin": "Lappi", 
        "country": "Finland", 
        "population_proper": "", 
        "iso2": "FI", 
        "capital": "minor", 
        "lat": "67.416667", 
        "lng": "26.6", 
        "population": ""
    }, 
    {
        "city": "Kangasala", 
        "admin": "Pirkanmaa", 
        "country": "Finland", 
        "population_proper": "", 
        "iso2": "FI", 
        "capital": "minor", 
        "lat": "61.466667", 
        "lng": "24.083333", 
        "population": ""
    }, 
    {
        "city": "Varkaus", 
        "admin": "Pohjois-Savo", 
        "country": "Finland", 
        "population_proper": "", 
        "iso2": "FI", 
        "capital": "minor", 
        "lat": "62.316667", 
        "lng": "27.916667", 
        "population": ""
    }, 
    {
        "city": "Kuusamo", 
        "admin": "Pohjois-Pohjanmaa", 
        "country": "Finland", 
        "population_proper": "", 
        "iso2": "FI", 
        "capital": "minor", 
        "lat": "65.966667", 
        "lng": "29.183333", 
        "population": ""
    }, 
    {
        "city": "Teuva", 
        "admin": "Etel\u00e4-Pohjanmaa", 
        "country": "Finland", 
        "population_proper": "", 
        "iso2": "FI", 
        "capital": "minor", 
        "lat": "62.483333", 
        "lng": "21.733333", 
        "population": ""
    }, 
    {
        "city": "Saarij\u00e4rvi", 
        "admin": "Keski-Suomi", 
        "country": "Finland", 
        "population_proper": "", 
        "iso2": "FI", 
        "capital": "minor", 
        "lat": "62.716667", 
        "lng": "25.266667", 
        "population": ""
    }, 
    {
        "city": "Lemland", 
        "admin": "\u00c5land", 
        "country": "Finland", 
        "population_proper": "", 
        "iso2": "FI", 
        "capital": "minor", 
        "lat": "60.083333", 
        "lng": "20.1", 
        "population": ""
    }, 
    {
        "city": "Simpele", 
        "admin": "Etel\u00e4-Karjala", 
        "country": "Finland", 
        "population_proper": "", 
        "iso2": "FI", 
        "capital": "minor", 
        "lat": "61.433333", 
        "lng": "29.366667", 
        "population": ""
    }, 
    {
        "city": "Lumijoki", 
        "admin": "Pohjois-Pohjanmaa", 
        "country": "Finland", 
        "population_proper": "", 
        "iso2": "FI", 
        "capital": "minor", 
        "lat": "64.833333", 
        "lng": "25.183333", 
        "population": ""
    }, 
    {
        "city": "Urjala", 
        "admin": "Pirkanmaa", 
        "country": "Finland", 
        "population_proper": "", 
        "iso2": "FI", 
        "capital": "minor", 
        "lat": "61.083333", 
        "lng": "23.533333", 
        "population": ""
    }, 
    {
        "city": "Geta", 
        "admin": "\u00c5land", 
        "country": "Finland", 
        "population_proper": "", 
        "iso2": "FI", 
        "capital": "minor", 
        "lat": "60.383333", 
        "lng": "19.85", 
        "population": ""
    }, 
    {
        "city": "Laukaa", 
        "admin": "Keski-Suomi", 
        "country": "Finland", 
        "population_proper": "", 
        "iso2": "FI", 
        "capital": "minor", 
        "lat": "62.416667", 
        "lng": "25.95", 
        "population": ""
    }, 
    {
        "city": "Ing\u00e5", 
        "admin": "Uusimaa", 
        "country": "Finland", 
        "population_proper": "", 
        "iso2": "FI", 
        "capital": "minor", 
        "lat": "60.05", 
        "lng": "24.016667", 
        "population": ""
    }, 
    {
        "city": "Laitila", 
        "admin": "Varsinais-Suomi", 
        "country": "Finland", 
        "population_proper": "", 
        "iso2": "FI", 
        "capital": "minor", 
        "lat": "60.883333", 
        "lng": "21.683333", 
        "population": ""
    }, 
    {
        "city": "Kitee", 
        "admin": "Pohjois-Karjala", 
        "country": "Finland", 
        "population_proper": "", 
        "iso2": "FI", 
        "capital": "minor", 
        "lat": "62.1", 
        "lng": "30.15", 
        "population": ""
    }, 
    {
        "city": "Kaustinen", 
        "admin": "Keski-Pohjanmaa", 
        "country": "Finland", 
        "population_proper": "", 
        "iso2": "FI", 
        "capital": "minor", 
        "lat": "63.533333", 
        "lng": "23.7", 
        "population": ""
    }, 
    {
        "city": "Honkajoki", 
        "admin": "Satakunta", 
        "country": "Finland", 
        "population_proper": "", 
        "iso2": "FI", 
        "capital": "minor", 
        "lat": "61.983333", 
        "lng": "22.266667", 
        "population": ""
    }, 
    {
        "city": "Kauhajoki", 
        "admin": "Etel\u00e4-Pohjanmaa", 
        "country": "Finland", 
        "population_proper": "", 
        "iso2": "FI", 
        "capital": "minor", 
        "lat": "62.433333", 
        "lng": "22.183333", 
        "population": ""
    }, 
    {
        "city": "Lieksa", 
        "admin": "Pohjois-Karjala", 
        "country": "Finland", 
        "population_proper": "", 
        "iso2": "FI", 
        "capital": "minor", 
        "lat": "63.316667", 
        "lng": "30.016667", 
        "population": ""
    }, 
    {
        "city": "Sonkaj\u00e4rvi", 
        "admin": "Pohjois-Savo", 
        "country": "Finland", 
        "population_proper": "", 
        "iso2": "FI", 
        "capital": "minor", 
        "lat": "63.666667", 
        "lng": "27.516667", 
        "population": ""
    }, 
    {
        "city": "Suonenjoki", 
        "admin": "Pohjois-Savo", 
        "country": "Finland", 
        "population_proper": "", 
        "iso2": "FI", 
        "capital": "minor", 
        "lat": "62.616667", 
        "lng": "27.133333", 
        "population": ""
    }, 
    {
        "city": "Enonteki\u00f6", 
        "admin": "Lappi", 
        "country": "Finland", 
        "population_proper": "", 
        "iso2": "FI", 
        "capital": "minor", 
        "lat": "68.383333", 
        "lng": "23.633333", 
        "population": ""
    }, 
    {
        "city": "Nastola", 
        "admin": "P\u00e4ij\u00e4t-H\u00e4me", 
        "country": "Finland", 
        "population_proper": "", 
        "iso2": "FI", 
        "capital": "minor", 
        "lat": "60.95", 
        "lng": "25.933333", 
        "population": ""
    }, 
    {
        "city": "Kyyj\u00e4rvi", 
        "admin": "Keski-Suomi", 
        "country": "Finland", 
        "population_proper": "", 
        "iso2": "FI", 
        "capital": "minor", 
        "lat": "63.033333", 
        "lng": "24.566667", 
        "population": ""
    }, 
    {
        "city": "V\u00e5rd\u00f6", 
        "admin": "\u00c5land", 
        "country": "Finland", 
        "population_proper": "", 
        "iso2": "FI", 
        "capital": "minor", 
        "lat": "60.246066", 
        "lng": "20.373934", 
        "population": ""
    }, 
    {
        "city": "Savukoski", 
        "admin": "Lappi", 
        "country": "Finland", 
        "population_proper": "", 
        "iso2": "FI", 
        "capital": "minor", 
        "lat": "67.2925", 
        "lng": "28.158056", 
        "population": ""
    }, 
    {
        "city": "Sipoo", 
        "admin": "Uusimaa", 
        "country": "Finland", 
        "population_proper": "", 
        "iso2": "FI", 
        "capital": "minor", 
        "lat": "60.366667", 
        "lng": "25.266667", 
        "population": ""
    }, 
    {
        "city": "Siilinj\u00e4rvi", 
        "admin": "Pohjois-Savo", 
        "country": "Finland", 
        "population_proper": "", 
        "iso2": "FI", 
        "capital": "minor", 
        "lat": "63.083333", 
        "lng": "27.666667", 
        "population": ""
    }, 
    {
        "city": "Tuusniemi", 
        "admin": "Pohjois-Savo", 
        "country": "Finland", 
        "population_proper": "", 
        "iso2": "FI", 
        "capital": "minor", 
        "lat": "62.816667", 
        "lng": "28.5", 
        "population": ""
    }, 
    {
        "city": "Masku", 
        "admin": "Varsinais-Suomi", 
        "country": "Finland", 
        "population_proper": "", 
        "iso2": "FI", 
        "capital": "minor", 
        "lat": "60.566667", 
        "lng": "22.1", 
        "population": ""
    }, 
    {
        "city": "Ranua", 
        "admin": "Lappi", 
        "country": "Finland", 
        "population_proper": "", 
        "iso2": "FI", 
        "capital": "minor", 
        "lat": "65.916667", 
        "lng": "26.533333", 
        "population": ""
    }, 
    {
        "city": "Lapua", 
        "admin": "Etel\u00e4-Pohjanmaa", 
        "country": "Finland", 
        "population_proper": "", 
        "iso2": "FI", 
        "capital": "minor", 
        "lat": "62.95", 
        "lng": "23.0", 
        "population": ""
    }, 
    {
        "city": "Nivala", 
        "admin": "Pohjois-Pohjanmaa", 
        "country": "Finland", 
        "population_proper": "", 
        "iso2": "FI", 
        "capital": "minor", 
        "lat": "63.916667", 
        "lng": "24.966667", 
        "population": ""
    }, 
    {
        "city": "Nummela", 
        "admin": "Uusimaa", 
        "country": "Finland", 
        "population_proper": "", 
        "iso2": "FI", 
        "capital": "minor", 
        "lat": "60.333333", 
        "lng": "24.333333", 
        "population": ""
    }, 
    {
        "city": "Pelkosenniemi", 
        "admin": "Lappi", 
        "country": "Finland", 
        "population_proper": "", 
        "iso2": "FI", 
        "capital": "minor", 
        "lat": "67.110833", 
        "lng": "27.510556", 
        "population": ""
    }, 
    {
        "city": "Br\u00e4nd\u00f6", 
        "admin": "\u00c5land", 
        "country": "Finland", 
        "population_proper": "", 
        "iso2": "FI", 
        "capital": "minor", 
        "lat": "60.416667", 
        "lng": "21.05", 
        "population": ""
    }, 
    {
        "city": "Pulkkila", 
        "admin": "Pohjois-Pohjanmaa", 
        "country": "Finland", 
        "population_proper": "", 
        "iso2": "FI", 
        "capital": "minor", 
        "lat": "64.266667", 
        "lng": "25.866667", 
        "population": ""
    }, 
    {
        "city": "Pudasj\u00e4rvi", 
        "admin": "Pohjois-Pohjanmaa", 
        "country": "Finland", 
        "population_proper": "", 
        "iso2": "FI", 
        "capital": "minor", 
        "lat": "65.383333", 
        "lng": "26.916667", 
        "population": ""
    }, 
    {
        "city": "Haapaj\u00e4rvi", 
        "admin": "Pohjois-Pohjanmaa", 
        "country": "Finland", 
        "population_proper": "", 
        "iso2": "FI", 
        "capital": "minor", 
        "lat": "63.75", 
        "lng": "25.333333", 
        "population": ""
    }, 
    {
        "city": "Harjavalta", 
        "admin": "Satakunta", 
        "country": "Finland", 
        "population_proper": "", 
        "iso2": "FI", 
        "capital": "minor", 
        "lat": "61.316667", 
        "lng": "22.133333", 
        "population": ""
    }, 
    {
        "city": "Karstula", 
        "admin": "Keski-Suomi", 
        "country": "Finland", 
        "population_proper": "", 
        "iso2": "FI", 
        "capital": "minor", 
        "lat": "62.866667", 
        "lng": "24.783333", 
        "population": ""
    }, 
    {
        "city": "Kauniainen", 
        "admin": "Uusimaa", 
        "country": "Finland", 
        "population_proper": "", 
        "iso2": "FI", 
        "capital": "minor", 
        "lat": "60.217222", 
        "lng": "24.7425", 
        "population": ""
    }, 
    {
        "city": "Korsn\u00e4s", 
        "admin": "Pohjanmaa", 
        "country": "Finland", 
        "population_proper": "", 
        "iso2": "FI", 
        "capital": "minor", 
        "lat": "62.783333", 
        "lng": "21.2", 
        "population": ""
    }, 
    {
        "city": "Ruokolahti", 
        "admin": "Etel\u00e4-Karjala", 
        "country": "Finland", 
        "population_proper": "", 
        "iso2": "FI", 
        "capital": "minor", 
        "lat": "61.283333", 
        "lng": "28.833333", 
        "population": ""
    }, 
    {
        "city": "Jomala", 
        "admin": "\u00c5land", 
        "country": "Finland", 
        "population_proper": "", 
        "iso2": "FI", 
        "capital": "minor", 
        "lat": "60.15", 
        "lng": "19.966667", 
        "population": ""
    }, 
    {
        "city": "Loimaa", 
        "admin": "Varsinais-Suomi", 
        "country": "Finland", 
        "population_proper": "", 
        "iso2": "FI", 
        "capital": "minor", 
        "lat": "60.866667", 
        "lng": "22.983333", 
        "population": ""
    }, 
    {
        "city": "Muhos", 
        "admin": "Pohjois-Pohjanmaa", 
        "country": "Finland", 
        "population_proper": "", 
        "iso2": "FI", 
        "capital": "minor", 
        "lat": "64.8", 
        "lng": "25.983333", 
        "population": ""
    }, 
    {
        "city": "Rautalampi", 
        "admin": "Pohjois-Savo", 
        "country": "Finland", 
        "population_proper": "", 
        "iso2": "FI", 
        "capital": "minor", 
        "lat": "62.633333", 
        "lng": "26.833333", 
        "population": ""
    }, 
    {
        "city": "Rautavaara", 
        "admin": "Pohjois-Savo", 
        "country": "Finland", 
        "population_proper": "", 
        "iso2": "FI", 
        "capital": "minor", 
        "lat": "63.483333", 
        "lng": "28.3", 
        "population": ""
    }, 
    {
        "city": "Lohja", 
        "admin": "Uusimaa", 
        "country": "Finland", 
        "population_proper": "", 
        "iso2": "FI", 
        "capital": "minor", 
        "lat": "60.25", 
        "lng": "24.083333", 
        "population": ""
    }, 
    {
        "city": "Taipalsaari", 
        "admin": "Etel\u00e4-Karjala", 
        "country": "Finland", 
        "population_proper": "", 
        "iso2": "FI", 
        "capital": "minor", 
        "lat": "61.15", 
        "lng": "28.05", 
        "population": ""
    }, 
    {
        "city": "Imatra", 
        "admin": "Etel\u00e4-Karjala", 
        "country": "Finland", 
        "population_proper": "", 
        "iso2": "FI", 
        "capital": "minor", 
        "lat": "61.166667", 
        "lng": "28.766667", 
        "population": ""
    }, 
    {
        "city": "J\u00e4mij\u00e4rvi", 
        "admin": "Satakunta", 
        "country": "Finland", 
        "population_proper": "", 
        "iso2": "FI", 
        "capital": "minor", 
        "lat": "61.816667", 
        "lng": "22.7", 
        "population": ""
    }, 
    {
        "city": "Raseborg", 
        "admin": "Uusimaa", 
        "country": "Finland", 
        "population_proper": "", 
        "iso2": "FI", 
        "capital": "minor", 
        "lat": "59.983333", 
        "lng": "23.65", 
        "population": ""
    }, 
    {
        "city": "Karkkila", 
        "admin": "Uusimaa", 
        "country": "Finland", 
        "population_proper": "", 
        "iso2": "FI", 
        "capital": "minor", 
        "lat": "60.533333", 
        "lng": "24.183333", 
        "population": ""
    }, 
    {
        "city": "Kalajoki", 
        "admin": "Pohjois-Pohjanmaa", 
        "country": "Finland", 
        "population_proper": "", 
        "iso2": "FI", 
        "capital": "minor", 
        "lat": "64.25", 
        "lng": "23.95", 
        "population": ""
    }, 
    {
        "city": "Puumala", 
        "admin": "Etel\u00e4-Savo", 
        "country": "Finland", 
        "population_proper": "", 
        "iso2": "FI", 
        "capital": "minor", 
        "lat": "61.533333", 
        "lng": "28.183333", 
        "population": ""
    }, 
    {
        "city": "Uusikaupunki", 
        "admin": "Varsinais-Suomi", 
        "country": "Finland", 
        "population_proper": "", 
        "iso2": "FI", 
        "capital": "minor", 
        "lat": "60.8", 
        "lng": "21.416667", 
        "population": ""
    }, 
    {
        "city": "Soini", 
        "admin": "Etel\u00e4-Pohjanmaa", 
        "country": "Finland", 
        "population_proper": "", 
        "iso2": "FI", 
        "capital": "minor", 
        "lat": "62.866667", 
        "lng": "24.216667", 
        "population": ""
    }, 
    {
        "city": "Pihtipudas", 
        "admin": "Keski-Suomi", 
        "country": "Finland", 
        "population_proper": "", 
        "iso2": "FI", 
        "capital": "minor", 
        "lat": "63.383333", 
        "lng": "25.566667", 
        "population": ""
    }, 
    {
        "city": "Toijala", 
        "admin": "Pirkanmaa", 
        "country": "Finland", 
        "population_proper": "", 
        "iso2": "FI", 
        "capital": "minor", 
        "lat": "61.166667", 
        "lng": "23.866667", 
        "population": ""
    }, 
    {
        "city": "Lemi", 
        "admin": "Etel\u00e4-Karjala", 
        "country": "Finland", 
        "population_proper": "", 
        "iso2": "FI", 
        "capital": "minor", 
        "lat": "61.05", 
        "lng": "27.8", 
        "population": ""
    }, 
    {
        "city": "Savitaipale", 
        "admin": "Etel\u00e4-Karjala", 
        "country": "Finland", 
        "population_proper": "", 
        "iso2": "FI", 
        "capital": "minor", 
        "lat": "61.2", 
        "lng": "27.7", 
        "population": ""
    }, 
    {
        "city": "Karvia", 
        "admin": "Satakunta", 
        "country": "Finland", 
        "population_proper": "", 
        "iso2": "FI", 
        "capital": "minor", 
        "lat": "62.133333", 
        "lng": "22.566667", 
        "population": ""
    }, 
    {
        "city": "Ilmajoki", 
        "admin": "Etel\u00e4-Pohjanmaa", 
        "country": "Finland", 
        "population_proper": "", 
        "iso2": "FI", 
        "capital": "minor", 
        "lat": "62.733333", 
        "lng": "22.566667", 
        "population": ""
    }, 
    {
        "city": "Orimattila", 
        "admin": "P\u00e4ij\u00e4t-H\u00e4me", 
        "country": "Finland", 
        "population_proper": "", 
        "iso2": "FI", 
        "capital": "minor", 
        "lat": "60.8", 
        "lng": "25.75", 
        "population": ""
    }, 
    {
        "city": "Orip\u00e4\u00e4", 
        "admin": "Varsinais-Suomi", 
        "country": "Finland", 
        "population_proper": "", 
        "iso2": "FI", 
        "capital": "minor", 
        "lat": "60.85", 
        "lng": "22.683333", 
        "population": ""
    }, 
    {
        "city": "Kankaanp\u00e4\u00e4", 
        "admin": "Satakunta", 
        "country": "Finland", 
        "population_proper": "", 
        "iso2": "FI", 
        "capital": "minor", 
        "lat": "61.8", 
        "lng": "22.416667", 
        "population": ""
    }, 
    {
        "city": "Vantaa", 
        "admin": "Uusimaa", 
        "country": "Finland", 
        "population_proper": "", 
        "iso2": "FI", 
        "capital": "minor", 
        "lat": "60.3", 
        "lng": "24.85", 
        "population": ""
    }, 
    {
        "city": "Pielavesi", 
        "admin": "Pohjois-Savo", 
        "country": "Finland", 
        "population_proper": "", 
        "iso2": "FI", 
        "capital": "minor", 
        "lat": "63.233333", 
        "lng": "26.75", 
        "population": ""
    }, 
    {
        "city": "Kronoby", 
        "admin": "Pohjanmaa", 
        "country": "Finland", 
        "population_proper": "", 
        "iso2": "FI", 
        "capital": "minor", 
        "lat": "63.716667", 
        "lng": "23.033333", 
        "population": ""
    }, 
    {
        "city": "Kivij\u00e4rvi", 
        "admin": "Keski-Suomi", 
        "country": "Finland", 
        "population_proper": "", 
        "iso2": "FI", 
        "capital": "minor", 
        "lat": "63.116667", 
        "lng": "25.1", 
        "population": ""
    }, 
    {
        "city": "Juva", 
        "admin": "Etel\u00e4-Savo", 
        "country": "Finland", 
        "population_proper": "", 
        "iso2": "FI", 
        "capital": "minor", 
        "lat": "61.9", 
        "lng": "27.85", 
        "population": ""
    }, 
    {
        "city": "Polvij\u00e4rvi", 
        "admin": "Pohjois-Karjala", 
        "country": "Finland", 
        "population_proper": "", 
        "iso2": "FI", 
        "capital": "minor", 
        "lat": "62.85", 
        "lng": "29.366667", 
        "population": ""
    }, 
    {
        "city": "Polvij\u00e4rvi", 
        "admin": "Etel\u00e4-Savo", 
        "country": "Finland", 
        "population_proper": "", 
        "iso2": "FI", 
        "capital": "minor", 
        "lat": "62.416667", 
        "lng": "28.333333", 
        "population": ""
    }, 
    {
        "city": "Lapptr\u00e4sk", 
        "admin": "Uusimaa", 
        "country": "Finland", 
        "population_proper": "", 
        "iso2": "FI", 
        "capital": "minor", 
        "lat": "60.633333", 
        "lng": "26.216667", 
        "population": ""
    }, 
    {
        "city": "Luvia", 
        "admin": "Satakunta", 
        "country": "Finland", 
        "population_proper": "", 
        "iso2": "FI", 
        "capital": "minor", 
        "lat": "61.35", 
        "lng": "21.616667", 
        "population": ""
    }, 
    {
        "city": "Taivalkoski", 
        "admin": "Pohjois-Pohjanmaa", 
        "country": "Finland", 
        "population_proper": "", 
        "iso2": "FI", 
        "capital": "minor", 
        "lat": "65.566667", 
        "lng": "28.25", 
        "population": ""
    }, 
    {
        "city": "Yp\u00e4j\u00e4", 
        "admin": "Kanta-H\u00e4me", 
        "country": "Finland", 
        "population_proper": "", 
        "iso2": "FI", 
        "capital": "minor", 
        "lat": "60.8", 
        "lng": "23.283333", 
        "population": ""
    }, 
    {
        "city": "Joutsa", 
        "admin": "Keski-Suomi", 
        "country": "Finland", 
        "population_proper": "", 
        "iso2": "FI", 
        "capital": "minor", 
        "lat": "61.733333", 
        "lng": "26.116667", 
        "population": ""
    }, 
    {
        "city": "Malax", 
        "admin": "Pohjanmaa", 
        "country": "Finland", 
        "population_proper": "", 
        "iso2": "FI", 
        "capital": "minor", 
        "lat": "62.933333", 
        "lng": "21.566667", 
        "population": ""
    }, 
    {
        "city": "Myn\u00e4m\u00e4ki", 
        "admin": "Varsinais-Suomi", 
        "country": "Finland", 
        "population_proper": "", 
        "iso2": "FI", 
        "capital": "minor", 
        "lat": "60.666667", 
        "lng": "22.0", 
        "population": ""
    }, 
    {
        "city": "Ikaalinen", 
        "admin": "Pirkanmaa", 
        "country": "Finland", 
        "population_proper": "", 
        "iso2": "FI", 
        "capital": "minor", 
        "lat": "61.766667", 
        "lng": "23.05", 
        "population": ""
    }, 
    {
        "city": "Pertunmaa", 
        "admin": "Etel\u00e4-Savo", 
        "country": "Finland", 
        "population_proper": "", 
        "iso2": "FI", 
        "capital": "minor", 
        "lat": "61.5", 
        "lng": "26.483333", 
        "population": ""
    }, 
    {
        "city": "J\u00e4rvenp\u00e4\u00e4", 
        "admin": "Uusimaa", 
        "country": "Finland", 
        "population_proper": "", 
        "iso2": "FI", 
        "capital": "minor", 
        "lat": "60.466667", 
        "lng": "25.1", 
        "population": ""
    }, 
    {
        "city": "Kannus", 
        "admin": "Keski-Pohjanmaa", 
        "country": "Finland", 
        "population_proper": "", 
        "iso2": "FI", 
        "capital": "minor", 
        "lat": "63.9", 
        "lng": "23.9", 
        "population": ""
    }, 
    {
        "city": "Nurmij\u00e4rvi", 
        "admin": "Uusimaa", 
        "country": "Finland", 
        "population_proper": "", 
        "iso2": "FI", 
        "capital": "minor", 
        "lat": "60.466667", 
        "lng": "24.8", 
        "population": ""
    }, 
    {
        "city": "Sottunga", 
        "admin": "\u00c5land", 
        "country": "Finland", 
        "population_proper": "", 
        "iso2": "FI", 
        "capital": "minor", 
        "lat": "60.133333", 
        "lng": "20.666667", 
        "population": ""
    }, 
    {
        "city": "H\u00e4meenkyr\u00f6", 
        "admin": "Pirkanmaa", 
        "country": "Finland", 
        "population_proper": "", 
        "iso2": "FI", 
        "capital": "minor", 
        "lat": "61.633333", 
        "lng": "23.2", 
        "population": ""
    }, 
    {
        "city": "\u00d6dkarby", 
        "admin": "\u00c5land", 
        "country": "Finland", 
        "population_proper": "", 
        "iso2": "FI", 
        "capital": "minor", 
        "lat": "60.3", 
        "lng": "19.983333", 
        "population": ""
    }, 
    {
        "city": "Tammela", 
        "admin": "Kanta-H\u00e4me", 
        "country": "Finland", 
        "population_proper": "", 
        "iso2": "FI", 
        "capital": "minor", 
        "lat": "60.8", 
        "lng": "23.766667", 
        "population": ""
    }, 
    {
        "city": "Multia", 
        "admin": "Keski-Suomi", 
        "country": "Finland", 
        "population_proper": "", 
        "iso2": "FI", 
        "capital": "minor", 
        "lat": "62.416667", 
        "lng": "24.783333", 
        "population": ""
    }, 
    {
        "city": "Vierem\u00e4", 
        "admin": "Pohjois-Savo", 
        "country": "Finland", 
        "population_proper": "", 
        "iso2": "FI", 
        "capital": "minor", 
        "lat": "63.75", 
        "lng": "27.016667", 
        "population": ""
    }, 
    {
        "city": "Liminka", 
        "admin": "Pohjois-Pohjanmaa", 
        "country": "Finland", 
        "population_proper": "", 
        "iso2": "FI", 
        "capital": "minor", 
        "lat": "64.816667", 
        "lng": "25.4", 
        "population": ""
    }, 
    {
        "city": "Kiuruvesi", 
        "admin": "Pohjois-Savo", 
        "country": "Finland", 
        "population_proper": "", 
        "iso2": "FI", 
        "capital": "minor", 
        "lat": "63.65", 
        "lng": "26.616667", 
        "population": ""
    }, 
    {
        "city": "Kauhava", 
        "admin": "Etel\u00e4-Pohjanmaa", 
        "country": "Finland", 
        "population_proper": "", 
        "iso2": "FI", 
        "capital": "minor", 
        "lat": "63.1", 
        "lng": "23.083333", 
        "population": ""
    }, 
    {
        "city": "Hyvink\u00e4\u00e4", 
        "admin": "Uusimaa", 
        "country": "Finland", 
        "population_proper": "", 
        "iso2": "FI", 
        "capital": "minor", 
        "lat": "60.633333", 
        "lng": "24.866667", 
        "population": ""
    }, 
    {
        "city": "Outokumpu", 
        "admin": "Pohjois-Karjala", 
        "country": "Finland", 
        "population_proper": "", 
        "iso2": "FI", 
        "capital": "minor", 
        "lat": "62.733333", 
        "lng": "29.016667", 
        "population": ""
    }, 
    {
        "city": "Kristinestad", 
        "admin": "Pohjanmaa", 
        "country": "Finland", 
        "population_proper": "", 
        "iso2": "FI", 
        "capital": "minor", 
        "lat": "62.283333", 
        "lng": "21.383333", 
        "population": ""
    }, 
    {
        "city": "Nousiainen", 
        "admin": "Varsinais-Suomi", 
        "country": "Finland", 
        "population_proper": "", 
        "iso2": "FI", 
        "capital": "minor", 
        "lat": "60.616667", 
        "lng": "22.133333", 
        "population": ""
    }, 
    {
        "city": "Iisalmi", 
        "admin": "Pohjois-Savo", 
        "country": "Finland", 
        "population_proper": "", 
        "iso2": "FI", 
        "capital": "minor", 
        "lat": "63.566667", 
        "lng": "27.183333", 
        "population": ""
    }, 
    {
        "city": "Hammarland", 
        "admin": "\u00c5land", 
        "country": "Finland", 
        "population_proper": "", 
        "iso2": "FI", 
        "capital": "minor", 
        "lat": "60.216667", 
        "lng": "19.75", 
        "population": ""
    }, 
    {
        "city": "Pieks\u00e4m\u00e4ki", 
        "admin": "Etel\u00e4-Savo", 
        "country": "Finland", 
        "population_proper": "", 
        "iso2": "FI", 
        "capital": "minor", 
        "lat": "62.3", 
        "lng": "27.133333", 
        "population": ""
    }, 
    {
        "city": "Hyrynsalmi", 
        "admin": "Kainuu", 
        "country": "Finland", 
        "population_proper": "", 
        "iso2": "FI", 
        "capital": "minor", 
        "lat": "64.666667", 
        "lng": "28.533333", 
        "population": ""
    }, 
    {
        "city": "Lappaj\u00e4rvi", 
        "admin": "Etel\u00e4-Pohjanmaa", 
        "country": "Finland", 
        "population_proper": "", 
        "iso2": "FI", 
        "capital": "minor", 
        "lat": "63.2", 
        "lng": "23.633333", 
        "population": ""
    }, 
    {
        "city": "Suomussalmi", 
        "admin": "Kainuu", 
        "country": "Finland", 
        "population_proper": "", 
        "iso2": "FI", 
        "capital": "minor", 
        "lat": "64.9", 
        "lng": "29.0", 
        "population": ""
    }, 
    {
        "city": "Tuusula", 
        "admin": "Uusimaa", 
        "country": "Finland", 
        "population_proper": "", 
        "iso2": "FI", 
        "capital": "minor", 
        "lat": "60.416667", 
        "lng": "25.033333", 
        "population": ""
    }, 
    {
        "city": "Kaskinen", 
        "admin": "Pohjanmaa", 
        "country": "Finland", 
        "population_proper": "", 
        "iso2": "FI", 
        "capital": "minor", 
        "lat": "62.383333", 
        "lng": "21.216667", 
        "population": ""
    }, 
    {
        "city": "Hankasalmi", 
        "admin": "Keski-Suomi", 
        "country": "Finland", 
        "population_proper": "", 
        "iso2": "FI", 
        "capital": "minor", 
        "lat": "62.383333", 
        "lng": "26.433333", 
        "population": ""
    }, 
    {
        "city": "Muonio", 
        "admin": "Lappi", 
        "country": "Finland", 
        "population_proper": "", 
        "iso2": "FI", 
        "capital": "minor", 
        "lat": "67.95", 
        "lng": "23.7", 
        "population": ""
    }, 
    {
        "city": "Maaninka", 
        "admin": "Pohjois-Savo", 
        "country": "Finland", 
        "population_proper": "", 
        "iso2": "FI", 
        "capital": "minor", 
        "lat": "63.15", 
        "lng": "27.3", 
        "population": ""
    }, 
    {
        "city": "Ecker\u00f6", 
        "admin": "\u00c5land", 
        "country": "Finland", 
        "population_proper": "", 
        "iso2": "FI", 
        "capital": "minor", 
        "lat": "60.2", 
        "lng": "19.616667", 
        "population": ""
    }, 
    {
        "city": "Hein\u00e4vesi", 
        "admin": "Etel\u00e4-Savo", 
        "country": "Finland", 
        "population_proper": "", 
        "iso2": "FI", 
        "capital": "minor", 
        "lat": "62.433333", 
        "lng": "28.6", 
        "population": ""
    }, 
    {
        "city": "Kannonkoski", 
        "admin": "Keski-Suomi", 
        "country": "Finland", 
        "population_proper": "", 
        "iso2": "FI", 
        "capital": "minor", 
        "lat": "62.966667", 
        "lng": "25.25", 
        "population": ""
    }, 
    {
        "city": "Kyr\u00f6", 
        "admin": "Varsinais-Suomi", 
        "country": "Finland", 
        "population_proper": "", 
        "iso2": "FI", 
        "capital": "minor", 
        "lat": "60.7", 
        "lng": "22.75", 
        "population": ""
    }, 
    {
        "city": "Kirkkonummi", 
        "admin": "Uusimaa", 
        "country": "Finland", 
        "population_proper": "", 
        "iso2": "FI", 
        "capital": "minor", 
        "lat": "60.116667", 
        "lng": "24.433333", 
        "population": ""
    }, 
    {
        "city": "Larsmo", 
        "admin": "Pohjanmaa", 
        "country": "Finland", 
        "population_proper": "", 
        "iso2": "FI", 
        "capital": "minor", 
        "lat": "63.75", 
        "lng": "22.8", 
        "population": ""
    }, 
    {
        "city": "Askola", 
        "admin": "Uusimaa", 
        "country": "Finland", 
        "population_proper": "", 
        "iso2": "FI", 
        "capital": "minor", 
        "lat": "60.533333", 
        "lng": "25.6", 
        "population": ""
    }, 
    {
        "city": "Forssa", 
        "admin": "Kanta-H\u00e4me", 
        "country": "Finland", 
        "population_proper": "", 
        "iso2": "FI", 
        "capital": "minor", 
        "lat": "60.816667", 
        "lng": "23.633333", 
        "population": ""
    }, 
    {
        "city": "M\u00e4ntt\u00e4", 
        "admin": "Pirkanmaa", 
        "country": "Finland", 
        "population_proper": "", 
        "iso2": "FI", 
        "capital": "minor", 
        "lat": "62.033333", 
        "lng": "24.633333", 
        "population": ""
    }, 
    {
        "city": "Utsjoki", 
        "admin": "Lappi", 
        "country": "Finland", 
        "population_proper": "", 
        "iso2": "FI", 
        "capital": "minor", 
        "lat": "69.883333", 
        "lng": "27.0", 
        "population": ""
    }, 
    {
        "city": "Parola", 
        "admin": "Kanta-H\u00e4me", 
        "country": "Finland", 
        "population_proper": "", 
        "iso2": "FI", 
        "capital": "minor", 
        "lat": "61.05", 
        "lng": "24.366667", 
        "population": ""
    }, 
    {
        "city": "\u00c4\u00e4nekoski", 
        "admin": "Keski-Suomi", 
        "country": "Finland", 
        "population_proper": "", 
        "iso2": "FI", 
        "capital": "minor", 
        "lat": "62.6", 
        "lng": "25.733333", 
        "population": ""
    }, 
    {
        "city": "Halsua", 
        "admin": "Keski-Pohjanmaa", 
        "country": "Finland", 
        "population_proper": "", 
        "iso2": "FI", 
        "capital": "minor", 
        "lat": "63.466667", 
        "lng": "24.166667", 
        "population": ""
    }, 
    {
        "city": "Ilomantsi", 
        "admin": "Pohjois-Karjala", 
        "country": "Finland", 
        "population_proper": "", 
        "iso2": "FI", 
        "capital": "minor", 
        "lat": "62.666667", 
        "lng": "30.916667", 
        "population": ""
    }, 
    {
        "city": "Alavus", 
        "admin": "Etel\u00e4-Pohjanmaa", 
        "country": "Finland", 
        "population_proper": "", 
        "iso2": "FI", 
        "capital": "minor", 
        "lat": "62.583333", 
        "lng": "23.616667", 
        "population": ""
    }, 
    {
        "city": "Taivassalo", 
        "admin": "Varsinais-Suomi", 
        "country": "Finland", 
        "population_proper": "", 
        "iso2": "FI", 
        "capital": "minor", 
        "lat": "60.566667", 
        "lng": "21.6", 
        "population": ""
    }, 
    {
        "city": "Lestij\u00e4rvi", 
        "admin": "Keski-Pohjanmaa", 
        "country": "Finland", 
        "population_proper": "", 
        "iso2": "FI", 
        "capital": "minor", 
        "lat": "63.533333", 
        "lng": "24.65", 
        "population": ""
    }, 
    {
        "city": "Haapavesi", 
        "admin": "Pohjois-Pohjanmaa", 
        "country": "Finland", 
        "population_proper": "", 
        "iso2": "FI", 
        "capital": "minor", 
        "lat": "64.133333", 
        "lng": "25.366667", 
        "population": ""
    }, 
    {
        "city": "Punkalaidun", 
        "admin": "Pirkanmaa", 
        "country": "Finland", 
        "population_proper": "", 
        "iso2": "FI", 
        "capital": "minor", 
        "lat": "61.116667", 
        "lng": "23.1", 
        "population": ""
    }, 
    {
        "city": "Uurainen", 
        "admin": "Keski-Suomi", 
        "country": "Finland", 
        "population_proper": "", 
        "iso2": "FI", 
        "capital": "minor", 
        "lat": "62.5", 
        "lng": "25.45", 
        "population": ""
    }, 
    {
        "city": "Pyh\u00e4joki", 
        "admin": "Pohjois-Pohjanmaa", 
        "country": "Finland", 
        "population_proper": "", 
        "iso2": "FI", 
        "capital": "minor", 
        "lat": "64.466667", 
        "lng": "24.233333", 
        "population": ""
    }, 
    {
        "city": "K\u00f6yli\u00f6", 
        "admin": "Satakunta", 
        "country": "Finland", 
        "population_proper": "", 
        "iso2": "FI", 
        "capital": "minor", 
        "lat": "61.116667", 
        "lng": "22.35", 
        "population": ""
    }, 
    {
        "city": "Kittil\u00e4", 
        "admin": "Lappi", 
        "country": "Finland", 
        "population_proper": "", 
        "iso2": "FI", 
        "capital": "minor", 
        "lat": "67.666667", 
        "lng": "24.9", 
        "population": ""
    }, 
    {
        "city": "Benn\u00e4s", 
        "admin": "Pohjanmaa", 
        "country": "Finland", 
        "population_proper": "", 
        "iso2": "FI", 
        "capital": "minor", 
        "lat": "63.6", 
        "lng": "22.8", 
        "population": ""
    }, 
    {
        "city": "Simo", 
        "admin": "Lappi", 
        "country": "Finland", 
        "population_proper": "", 
        "iso2": "FI", 
        "capital": "minor", 
        "lat": "65.666667", 
        "lng": "25.05", 
        "population": ""
    }, 
    {
        "city": "Huittinen", 
        "admin": "Satakunta", 
        "country": "Finland", 
        "population_proper": "", 
        "iso2": "FI", 
        "capital": "minor", 
        "lat": "61.183333", 
        "lng": "22.7", 
        "population": ""
    }, 
    {
        "city": "Ruovesi", 
        "admin": "Pirkanmaa", 
        "country": "Finland", 
        "population_proper": "", 
        "iso2": "FI", 
        "capital": "minor", 
        "lat": "61.983333", 
        "lng": "24.083333", 
        "population": ""
    }, 
    {
        "city": "Keitele", 
        "admin": "Pohjois-Savo", 
        "country": "Finland", 
        "population_proper": "", 
        "iso2": "FI", 
        "capital": "minor", 
        "lat": "63.183333", 
        "lng": "26.366667", 
        "population": ""
    }, 
    {
        "city": "Dalsbruk", 
        "admin": "Varsinais-Suomi", 
        "country": "Finland", 
        "population_proper": "", 
        "iso2": "FI", 
        "capital": "minor", 
        "lat": "60.033333", 
        "lng": "22.516667", 
        "population": ""
    }, 
    {
        "city": "Loppi", 
        "admin": "Kanta-H\u00e4me", 
        "country": "Finland", 
        "population_proper": "", 
        "iso2": "FI", 
        "capital": "minor", 
        "lat": "60.716667", 
        "lng": "24.45", 
        "population": ""
    }, 
    {
        "city": "Pyh\u00e4ranta", 
        "admin": "Varsinais-Suomi", 
        "country": "Finland", 
        "population_proper": "", 
        "iso2": "FI", 
        "capital": "minor", 
        "lat": "60.95", 
        "lng": "21.45", 
        "population": ""
    }, 
    {
        "city": "Lieto", 
        "admin": "Varsinais-Suomi", 
        "country": "Finland", 
        "population_proper": "", 
        "iso2": "FI", 
        "capital": "minor", 
        "lat": "60.5", 
        "lng": "22.45", 
        "population": ""
    }, 
    {
        "city": "Kempele", 
        "admin": "Pohjois-Pohjanmaa", 
        "country": "Finland", 
        "population_proper": "", 
        "iso2": "FI", 
        "capital": "minor", 
        "lat": "64.916667", 
        "lng": "25.5", 
        "population": ""
    }, 
    {
        "city": "Aura", 
        "admin": "Varsinais-Suomi", 
        "country": "Finland", 
        "population_proper": "", 
        "iso2": "FI", 
        "capital": "minor", 
        "lat": "60.6", 
        "lng": "22.566667", 
        "population": ""
    }, 
    {
        "city": "Riihim\u00e4ki", 
        "admin": "Kanta-H\u00e4me", 
        "country": "Finland", 
        "population_proper": "", 
        "iso2": "FI", 
        "capital": "minor", 
        "lat": "60.75", 
        "lng": "24.766667", 
        "population": ""
    }, 
    {
        "city": "Kustavi", 
        "admin": "Varsinais-Suomi", 
        "country": "Finland", 
        "population_proper": "", 
        "iso2": "FI", 
        "capital": "minor", 
        "lat": "60.55", 
        "lng": "21.35", 
        "population": ""
    }, 
    {
        "city": "Liperi", 
        "admin": "Pohjois-Karjala", 
        "country": "Finland", 
        "population_proper": "", 
        "iso2": "FI", 
        "capital": "minor", 
        "lat": "62.533333", 
        "lng": "29.366667", 
        "population": ""
    }, 
    {
        "city": "Kokem\u00e4ki", 
        "admin": "Satakunta", 
        "country": "Finland", 
        "population_proper": "", 
        "iso2": "FI", 
        "capital": "minor", 
        "lat": "61.25", 
        "lng": "22.35", 
        "population": ""
    }, 
    {
        "city": "Luhanka", 
        "admin": "Keski-Suomi", 
        "country": "Finland", 
        "population_proper": "", 
        "iso2": "FI", 
        "capital": "minor", 
        "lat": "61.783333", 
        "lng": "25.7", 
        "population": ""
    }, 
    {
        "city": "Veteli", 
        "admin": "Keski-Pohjanmaa", 
        "country": "Finland", 
        "population_proper": "", 
        "iso2": "FI", 
        "capital": "minor", 
        "lat": "63.466667", 
        "lng": "23.766667", 
        "population": ""
    }, 
    {
        "city": "Konnevesi", 
        "admin": "Keski-Suomi", 
        "country": "Finland", 
        "population_proper": "", 
        "iso2": "FI", 
        "capital": "minor", 
        "lat": "62.616667", 
        "lng": "26.316667", 
        "population": ""
    }, 
    {
        "city": "Perho", 
        "admin": "Keski-Pohjanmaa", 
        "country": "Finland", 
        "population_proper": "", 
        "iso2": "FI", 
        "capital": "minor", 
        "lat": "63.216667", 
        "lng": "24.416667", 
        "population": ""
    }, 
    {
        "city": "Rusko", 
        "admin": "Varsinais-Suomi", 
        "country": "Finland", 
        "population_proper": "", 
        "iso2": "FI", 
        "capital": "minor", 
        "lat": "60.533333", 
        "lng": "22.216667", 
        "population": ""
    }, 
    {
        "city": "Nakkila", 
        "admin": "Satakunta", 
        "country": "Finland", 
        "population_proper": "", 
        "iso2": "FI", 
        "capital": "minor", 
        "lat": "61.366667", 
        "lng": "22.0", 
        "population": ""
    }, 
    {
        "city": "Reisj\u00e4rvi", 
        "admin": "Pohjois-Pohjanmaa", 
        "country": "Finland", 
        "population_proper": "", 
        "iso2": "FI", 
        "capital": "minor", 
        "lat": "63.616667", 
        "lng": "24.9", 
        "population": ""
    }, 
    {
        "city": "Godby", 
        "admin": "\u00c5land", 
        "country": "Finland", 
        "population_proper": "", 
        "iso2": "FI", 
        "capital": "minor", 
        "lat": "60.233333", 
        "lng": "20.0", 
        "population": ""
    }, 
    {
        "city": "J\u00e4ms\u00e4", 
        "admin": "Keski-Suomi", 
        "country": "Finland", 
        "population_proper": "", 
        "iso2": "FI", 
        "capital": "minor", 
        "lat": "61.866667", 
        "lng": "25.2", 
        "population": ""
    }, 
    {
        "city": "V\u00f6r\u00e5", 
        "admin": "Pohjanmaa", 
        "country": "Finland", 
        "population_proper": "", 
        "iso2": "FI", 
        "capital": "minor", 
        "lat": "63.15", 
        "lng": "22.25", 
        "population": ""
    }, 
    {
        "city": "Hollola", 
        "admin": "P\u00e4ij\u00e4t-H\u00e4me", 
        "country": "Finland", 
        "population_proper": "", 
        "iso2": "FI", 
        "capital": "minor", 
        "lat": "61.0", 
        "lng": "25.5", 
        "population": ""
    }, 
    {
        "city": "Jokioinen", 
        "admin": "Kanta-H\u00e4me", 
        "country": "Finland", 
        "population_proper": "", 
        "iso2": "FI", 
        "capital": "minor", 
        "lat": "60.816667", 
        "lng": "23.466667", 
        "population": ""
    }, 
    {
        "city": "N\u00e4rpes", 
        "admin": "Pohjanmaa", 
        "country": "Finland", 
        "population_proper": "", 
        "iso2": "FI", 
        "capital": "minor", 
        "lat": "62.466667", 
        "lng": "21.333333", 
        "population": ""
    }, 
    {
        "city": "Sein\u00e4joki", 
        "admin": "Etel\u00e4-Pohjanmaa", 
        "country": "Finland", 
        "population_proper": "", 
        "iso2": "FI", 
        "capital": "admin", 
        "lat": "62.8", 
        "lng": "22.833333", 
        "population": ""
    }, 
    {
        "city": "Pet\u00e4j\u00e4vesi", 
        "admin": "Keski-Suomi", 
        "country": "Finland", 
        "population_proper": "", 
        "iso2": "FI", 
        "capital": "minor", 
        "lat": "62.25", 
        "lng": "25.2", 
        "population": ""
    }, 
    {
        "city": "Rauma", 
        "admin": "Satakunta", 
        "country": "Finland", 
        "population_proper": "", 
        "iso2": "FI", 
        "capital": "minor", 
        "lat": "61.133333", 
        "lng": "21.5", 
        "population": ""
    }, 
    {
        "city": "Ii", 
        "admin": "Pohjois-Pohjanmaa", 
        "country": "Finland", 
        "population_proper": "", 
        "iso2": "FI", 
        "capital": "minor", 
        "lat": "65.316667", 
        "lng": "25.366667", 
        "population": ""
    }, 
    {
        "city": "S\u00e4kyl\u00e4", 
        "admin": "Satakunta", 
        "country": "Finland", 
        "population_proper": "", 
        "iso2": "FI", 
        "capital": "minor", 
        "lat": "61.033333", 
        "lng": "22.333333", 
        "population": ""
    }, 
    {
        "city": "Kangasniemi", 
        "admin": "Etel\u00e4-Savo", 
        "country": "Finland", 
        "population_proper": "", 
        "iso2": "FI", 
        "capital": "minor", 
        "lat": "61.983333", 
        "lng": "26.633333", 
        "population": ""
    }, 
    {
        "city": "Siuntio", 
        "admin": "Uusimaa", 
        "country": "Finland", 
        "population_proper": "", 
        "iso2": "FI", 
        "capital": "minor", 
        "lat": "60.183333", 
        "lng": "24.2", 
        "population": ""
    }, 
    {
        "city": "Hamina", 
        "admin": "Kymenlaakso", 
        "country": "Finland", 
        "population_proper": "", 
        "iso2": "FI", 
        "capital": "minor", 
        "lat": "60.566667", 
        "lng": "27.2", 
        "population": ""
    }, 
    {
        "city": "P\u00e4lk\u00e4ne", 
        "admin": "Pirkanmaa", 
        "country": "Finland", 
        "population_proper": "", 
        "iso2": "FI", 
        "capital": "minor", 
        "lat": "61.333333", 
        "lng": "24.266667", 
        "population": ""
    }, 
    {
        "city": "K\u00e4rs\u00e4m\u00e4ki", 
        "admin": "Pohjois-Pohjanmaa", 
        "country": "Finland", 
        "population_proper": "", 
        "iso2": "FI", 
        "capital": "minor", 
        "lat": "63.966667", 
        "lng": "25.766667", 
        "population": ""
    }, 
    {
        "city": "Kuortane", 
        "admin": "Etel\u00e4-Pohjanmaa", 
        "country": "Finland", 
        "population_proper": "", 
        "iso2": "FI", 
        "capital": "minor", 
        "lat": "62.8", 
        "lng": "23.5", 
        "population": ""
    }, 
    {
        "city": "Vimpeli", 
        "admin": "Etel\u00e4-Pohjanmaa", 
        "country": "Finland", 
        "population_proper": "", 
        "iso2": "FI", 
        "capital": "minor", 
        "lat": "63.15", 
        "lng": "23.8", 
        "population": ""
    }, 
    {
        "city": "Koski Tl", 
        "admin": "Varsinais-Suomi", 
        "country": "Finland", 
        "population_proper": "", 
        "iso2": "FI", 
        "capital": "minor", 
        "lat": "60.65", 
        "lng": "23.15", 
        "population": ""
    }, 
    {
        "city": "Kausala", 
        "admin": "Kymenlaakso", 
        "country": "Finland", 
        "population_proper": "", 
        "iso2": "FI", 
        "capital": "minor", 
        "lat": "60.9", 
        "lng": "26.366667", 
        "population": ""
    }, 
    {
        "city": "Bj\u00f6rby", 
        "admin": "\u00c5land", 
        "country": "Finland", 
        "population_proper": "", 
        "iso2": "FI", 
        "capital": "minor", 
        "lat": "60.257222", 
        "lng": "20.134167", 
        "population": ""
    }, 
    {
        "city": "Alavieska", 
        "admin": "Pohjois-Pohjanmaa", 
        "country": "Finland", 
        "population_proper": "", 
        "iso2": "FI", 
        "capital": "minor", 
        "lat": "64.166667", 
        "lng": "24.3", 
        "population": ""
    }, 
    {
        "city": "Sysm\u00e4", 
        "admin": "P\u00e4ij\u00e4t-H\u00e4me", 
        "country": "Finland", 
        "population_proper": "", 
        "iso2": "FI", 
        "capital": "minor", 
        "lat": "61.5", 
        "lng": "25.683333", 
        "population": ""
    }, 
    {
        "city": "Tervola", 
        "admin": "Lappi", 
        "country": "Finland", 
        "population_proper": "", 
        "iso2": "FI", 
        "capital": "minor", 
        "lat": "66.083333", 
        "lng": "24.8", 
        "population": ""
    }, 
    {
        "city": "Kajaani", 
        "admin": "Kainuu", 
        "country": "Finland", 
        "population_proper": "", 
        "iso2": "FI", 
        "capital": "admin", 
        "lat": "64.233333", 
        "lng": "27.683333", 
        "population": ""
    }, 
    {
        "city": "Rantasalmi", 
        "admin": "Etel\u00e4-Savo", 
        "country": "Finland", 
        "population_proper": "", 
        "iso2": "FI", 
        "capital": "minor", 
        "lat": "62.066667", 
        "lng": "28.3", 
        "population": ""
    }, 
    {
        "city": "Hanko", 
        "admin": "Uusimaa", 
        "country": "Finland", 
        "population_proper": "", 
        "iso2": "FI", 
        "capital": "minor", 
        "lat": "59.833333", 
        "lng": "22.95", 
        "population": ""
    }, 
    {
        "city": "Sastamala", 
        "admin": "Pirkanmaa", 
        "country": "Finland", 
        "population_proper": "", 
        "iso2": "FI", 
        "capital": "minor", 
        "lat": "61.33333", 
        "lng": "22.9", 
        "population": ""
    }, 
    {
        "city": "M\u00e4nts\u00e4l\u00e4", 
        "admin": "Uusimaa", 
        "country": "Finland", 
        "population_proper": "", 
        "iso2": "FI", 
        "capital": "minor", 
        "lat": "60.633333", 
        "lng": "25.316667", 
        "population": ""
    }, 
    {
        "city": "Ivalo", 
        "admin": "Lappi", 
        "country": "Finland", 
        "population_proper": "", 
        "iso2": "FI", 
        "capital": "minor", 
        "lat": "68.65", 
        "lng": "27.6", 
        "population": ""
    }, 
    {
        "city": "Parikkala", 
        "admin": "Etel\u00e4-Karjala", 
        "country": "Finland", 
        "population_proper": "", 
        "iso2": "FI", 
        "capital": "minor", 
        "lat": "61.55", 
        "lng": "29.5", 
        "population": ""
    }, 
    {
        "city": "Pargas", 
        "admin": "Varsinais-Suomi", 
        "country": "Finland", 
        "population_proper": "", 
        "iso2": "FI", 
        "capital": "minor", 
        "lat": "60.3", 
        "lng": "22.3", 
        "population": ""
    }, 
    {
        "city": "Siikainen", 
        "admin": "Satakunta", 
        "country": "Finland", 
        "population_proper": "", 
        "iso2": "FI", 
        "capital": "minor", 
        "lat": "61.866667", 
        "lng": "21.833333", 
        "population": ""
    }, 
    {
        "city": "Hirvensalmi", 
        "admin": "Etel\u00e4-Savo", 
        "country": "Finland", 
        "population_proper": "", 
        "iso2": "FI", 
        "capital": "minor", 
        "lat": "61.633333", 
        "lng": "26.8", 
        "population": ""
    }, 
    {
        "city": "Kuhmoinen", 
        "admin": "Keski-Suomi", 
        "country": "Finland", 
        "population_proper": "", 
        "iso2": "FI", 
        "capital": "minor", 
        "lat": "61.566667", 
        "lng": "25.183333", 
        "population": ""
    }, 
    {
        "city": "Jalasj\u00e4rvi", 
        "admin": "Etel\u00e4-Pohjanmaa", 
        "country": "Finland", 
        "population_proper": "", 
        "iso2": "FI", 
        "capital": "minor", 
        "lat": "62.5", 
        "lng": "22.75", 
        "population": ""
    }, 
    {
        "city": "Turenki", 
        "admin": "Kanta-H\u00e4me", 
        "country": "Finland", 
        "population_proper": "", 
        "iso2": "FI", 
        "capital": "minor", 
        "lat": "60.916667", 
        "lng": "24.633333", 
        "population": ""
    }, 
    {
        "city": "Kotka", 
        "admin": "Kymenlaakso", 
        "country": "Finland", 
        "population_proper": "", 
        "iso2": "FI", 
        "capital": "minor", 
        "lat": "60.466667", 
        "lng": "26.916667", 
        "population": ""
    }, 
    {
        "city": "Evij\u00e4rvi", 
        "admin": "Etel\u00e4-Pohjanmaa", 
        "country": "Finland", 
        "population_proper": "", 
        "iso2": "FI", 
        "capital": "minor", 
        "lat": "63.366667", 
        "lng": "23.483333", 
        "population": ""
    }, 
    {
        "city": "Isokyr\u00f6", 
        "admin": "Pohjanmaa", 
        "country": "Finland", 
        "population_proper": "", 
        "iso2": "FI", 
        "capital": "minor", 
        "lat": "63.0", 
        "lng": "22.316667", 
        "population": ""
    }, 
    {
        "city": "Hartola", 
        "admin": "P\u00e4ij\u00e4t-H\u00e4me", 
        "country": "Finland", 
        "population_proper": "", 
        "iso2": "FI", 
        "capital": "minor", 
        "lat": "61.583333", 
        "lng": "26.016667", 
        "population": ""
    }, 
    {
        "city": "V\u00e4\u00e4ksy", 
        "admin": "P\u00e4ij\u00e4t-H\u00e4me", 
        "country": "Finland", 
        "population_proper": "", 
        "iso2": "FI", 
        "capital": "minor", 
        "lat": "61.183333", 
        "lng": "25.55", 
        "population": ""
    }, 
    {
        "city": "Vaala", 
        "admin": "Kainuu", 
        "country": "Finland", 
        "population_proper": "", 
        "iso2": "FI", 
        "capital": "minor", 
        "lat": "64.566667", 
        "lng": "26.833333", 
        "population": ""
    }, 
    {
        "city": "Virrat", 
        "admin": "Pirkanmaa", 
        "country": "Finland", 
        "population_proper": "", 
        "iso2": "FI", 
        "capital": "minor", 
        "lat": "62.233333", 
        "lng": "23.783333", 
        "population": ""
    }, 
    {
        "city": "Keuruu", 
        "admin": "Keski-Suomi", 
        "country": "Finland", 
        "population_proper": "", 
        "iso2": "FI", 
        "capital": "minor", 
        "lat": "62.266667", 
        "lng": "24.7", 
        "population": ""
    }, 
    {
        "city": "Tornio", 
        "admin": "Lappi", 
        "country": "Finland", 
        "population_proper": "", 
        "iso2": "FI", 
        "capital": "minor", 
        "lat": "65.84816", 
        "lng": "24.176639", 
        "population": ""
    }, 
    {
        "city": "Pornainen", 
        "admin": "Uusimaa", 
        "country": "Finland", 
        "population_proper": "", 
        "iso2": "FI", 
        "capital": "minor", 
        "lat": "60.466667", 
        "lng": "25.383333", 
        "population": ""
    }, 
    {
        "city": "Pukkila", 
        "admin": "Uusimaa", 
        "country": "Finland", 
        "population_proper": "", 
        "iso2": "FI", 
        "capital": "minor", 
        "lat": "60.65", 
        "lng": "25.566667", 
        "population": ""
    }, 
    {
        "city": "Isojoki", 
        "admin": "Etel\u00e4-Pohjanmaa", 
        "country": "Finland", 
        "population_proper": "", 
        "iso2": "FI", 
        "capital": "minor", 
        "lat": "62.116667", 
        "lng": "21.966667", 
        "population": ""
    }, 
    {
        "city": "Pello", 
        "admin": "Lappi", 
        "country": "Finland", 
        "population_proper": "", 
        "iso2": "FI", 
        "capital": "minor", 
        "lat": "66.775996", 
        "lng": "23.961632", 
        "population": ""
    }, 
    {
        "city": "Kurikka", 
        "admin": "Etel\u00e4-Pohjanmaa", 
        "country": "Finland", 
        "population_proper": "", 
        "iso2": "FI", 
        "capital": "minor", 
        "lat": "62.616667", 
        "lng": "22.416667", 
        "population": ""
    }, 
    {
        "city": "J\u00e4rvel\u00e4", 
        "admin": "P\u00e4ij\u00e4t-H\u00e4me", 
        "country": "Finland", 
        "population_proper": "", 
        "iso2": "FI", 
        "capital": "minor", 
        "lat": "60.866667", 
        "lng": "25.283333", 
        "population": ""
    }, 
    {
        "city": "Merij\u00e4rvi", 
        "admin": "Pohjois-Pohjanmaa", 
        "country": "Finland", 
        "population_proper": "", 
        "iso2": "FI", 
        "capital": "minor", 
        "lat": "64.3", 
        "lng": "24.45", 
        "population": ""
    }, 
    {
        "city": "Tohmaj\u00e4rvi", 
        "admin": "Pohjois-Karjala", 
        "country": "Finland", 
        "population_proper": "", 
        "iso2": "FI", 
        "capital": "minor", 
        "lat": "62.183333", 
        "lng": "30.383333", 
        "population": ""
    }, 
    {
        "city": "Toholampi", 
        "admin": "Keski-Pohjanmaa", 
        "country": "Finland", 
        "population_proper": "", 
        "iso2": "FI", 
        "capital": "minor", 
        "lat": "63.766667", 
        "lng": "24.25", 
        "population": ""
    }, 
    {
        "city": "Muurame", 
        "admin": "Keski-Suomi", 
        "country": "Finland", 
        "population_proper": "", 
        "iso2": "FI", 
        "capital": "minor", 
        "lat": "62.133333", 
        "lng": "25.666667", 
        "population": ""
    }, 
    {
        "city": "Sievi", 
        "admin": "Pohjois-Pohjanmaa", 
        "country": "Finland", 
        "population_proper": "", 
        "iso2": "FI", 
        "capital": "minor", 
        "lat": "63.9", 
        "lng": "24.5", 
        "population": ""
    }, 
    {
        "city": "Naantali", 
        "admin": "Varsinais-Suomi", 
        "country": "Finland", 
        "population_proper": "", 
        "iso2": "FI", 
        "capital": "minor", 
        "lat": "60.45", 
        "lng": "22.033333", 
        "population": ""
    }, 
    {
        "city": "Lumparland", 
        "admin": "\u00c5land", 
        "country": "Finland", 
        "population_proper": "", 
        "iso2": "FI", 
        "capital": "minor", 
        "lat": "60.116667", 
        "lng": "20.25", 
        "population": ""
    }, 
    {
        "city": "Lepp\u00e4virta", 
        "admin": "Pohjois-Savo", 
        "country": "Finland", 
        "population_proper": "", 
        "iso2": "FI", 
        "capital": "minor", 
        "lat": "62.483333", 
        "lng": "27.783333", 
        "population": ""
    }, 
    {
        "city": "Oulainen", 
        "admin": "Pohjois-Pohjanmaa", 
        "country": "Finland", 
        "population_proper": "", 
        "iso2": "FI", 
        "capital": "minor", 
        "lat": "64.266667", 
        "lng": "24.8", 
        "population": ""
    }, 
    {
        "city": "Jakobstad", 
        "admin": "Pohjanmaa", 
        "country": "Finland", 
        "population_proper": "", 
        "iso2": "FI", 
        "capital": "minor", 
        "lat": "63.666667", 
        "lng": "22.7", 
        "population": ""
    }, 
    {
        "city": "Joroinen", 
        "admin": "Etel\u00e4-Savo", 
        "country": "Finland", 
        "population_proper": "", 
        "iso2": "FI", 
        "capital": "minor", 
        "lat": "62.183333", 
        "lng": "27.833333", 
        "population": ""
    }, 
    {
        "city": "Salo", 
        "admin": "Varsinais-Suomi", 
        "country": "Finland", 
        "population_proper": "", 
        "iso2": "FI", 
        "capital": "minor", 
        "lat": "60.383333", 
        "lng": "23.133333", 
        "population": ""
    }, 
    {
        "city": "Laihia", 
        "admin": "Pohjanmaa", 
        "country": "Finland", 
        "population_proper": "", 
        "iso2": "FI", 
        "capital": "minor", 
        "lat": "62.966667", 
        "lng": "22.016667", 
        "population": ""
    }, 
    {
        "city": "Lovisa", 
        "admin": "Uusimaa", 
        "country": "Finland", 
        "population_proper": "", 
        "iso2": "FI", 
        "capital": "minor", 
        "lat": "60.45", 
        "lng": "26.233333", 
        "population": ""
    }, 
    {
        "city": "Myrskyl\u00e4", 
        "admin": "Uusimaa", 
        "country": "Finland", 
        "population_proper": "", 
        "iso2": "FI", 
        "capital": "minor", 
        "lat": "60.666667", 
        "lng": "25.85", 
        "population": ""
    }, 
    {
        "city": "Kuhmo", 
        "admin": "Kainuu", 
        "country": "Finland", 
        "population_proper": "", 
        "iso2": "FI", 
        "capital": "minor", 
        "lat": "64.133333", 
        "lng": "29.516667", 
        "population": ""
    }, 
    {
        "city": "Kontiolahti", 
        "admin": "Pohjois-Karjala", 
        "country": "Finland", 
        "population_proper": "", 
        "iso2": "FI", 
        "capital": "minor", 
        "lat": "62.766667", 
        "lng": "29.85", 
        "population": ""
    }, 
    {
        "city": "Paltamo", 
        "admin": "Kainuu", 
        "country": "Finland", 
        "population_proper": "", 
        "iso2": "FI", 
        "capital": "minor", 
        "lat": "64.416667", 
        "lng": "27.833333", 
        "population": ""
    }, 
    {
        "city": "Pirkkala", 
        "admin": "Pirkanmaa", 
        "country": "Finland", 
        "population_proper": "", 
        "iso2": "FI", 
        "capital": "minor", 
        "lat": "61.466667", 
        "lng": "23.566667", 
        "population": ""
    }, 
    {
        "city": "Karlby", 
        "admin": "\u00c5land", 
        "country": "Finland", 
        "population_proper": "", 
        "iso2": "FI", 
        "capital": "minor", 
        "lat": "59.916667", 
        "lng": "20.9", 
        "population": ""
    }, 
    {
        "city": "H\u00e4meenkoski", 
        "admin": "P\u00e4ij\u00e4t-H\u00e4me", 
        "country": "Finland", 
        "population_proper": "", 
        "iso2": "FI", 
        "capital": "minor", 
        "lat": "61.033333", 
        "lng": "25.15", 
        "population": ""
    }, 
    {
        "city": "Nurmes", 
        "admin": "Pohjois-Karjala", 
        "country": "Finland", 
        "population_proper": "", 
        "iso2": "FI", 
        "capital": "minor", 
        "lat": "63.55", 
        "lng": "29.116667", 
        "population": ""
    }, 
    {
        "city": "Toivakka", 
        "admin": "Keski-Suomi", 
        "country": "Finland", 
        "population_proper": "", 
        "iso2": "FI", 
        "capital": "minor", 
        "lat": "62.1", 
        "lng": "26.083333", 
        "population": ""
    }, 
    {
        "city": "Tarvasjoki", 
        "admin": "Varsinais-Suomi", 
        "country": "Finland", 
        "population_proper": "", 
        "iso2": "FI", 
        "capital": "minor", 
        "lat": "60.583333", 
        "lng": "22.733333", 
        "population": ""
    }, 
    {
        "city": "Nokia", 
        "admin": "Pirkanmaa", 
        "country": "Finland", 
        "population_proper": "", 
        "iso2": "FI", 
        "capital": "minor", 
        "lat": "61.466667", 
        "lng": "23.5", 
        "population": ""
    }, 
    {
        "city": "Korsholm", 
        "admin": "Pohjanmaa", 
        "country": "Finland", 
        "population_proper": "", 
        "iso2": "FI", 
        "capital": "minor", 
        "lat": "63.116667", 
        "lng": "21.716667", 
        "population": ""
    }, 
    {
        "city": "Hailuoto", 
        "admin": "Pohjois-Pohjanmaa", 
        "country": "Finland", 
        "population_proper": "", 
        "iso2": "FI", 
        "capital": "minor", 
        "lat": "65.0", 
        "lng": "24.716667", 
        "population": ""
    }, 
    {
        "city": "Sulkava", 
        "admin": "Etel\u00e4-Savo", 
        "country": "Finland", 
        "population_proper": "", 
        "iso2": "FI", 
        "capital": "minor", 
        "lat": "61.783333", 
        "lng": "28.383333", 
        "population": ""
    }, 
    {
        "city": "Humppila", 
        "admin": "Kanta-H\u00e4me", 
        "country": "Finland", 
        "population_proper": "", 
        "iso2": "FI", 
        "capital": "minor", 
        "lat": "60.933333", 
        "lng": "23.366667", 
        "population": ""
    }, 
    {
        "city": "Ristij\u00e4rvi", 
        "admin": "Kainuu", 
        "country": "Finland", 
        "population_proper": "", 
        "iso2": "FI", 
        "capital": "minor", 
        "lat": "64.5", 
        "lng": "28.216667", 
        "population": ""
    }, 
    {
        "city": "Kumlinge", 
        "admin": "\u00c5land", 
        "country": "Finland", 
        "population_proper": "", 
        "iso2": "FI", 
        "capital": "minor", 
        "lat": "60.266667", 
        "lng": "20.783333", 
        "population": ""
    }, 
    {
        "city": "Ruukki", 
        "admin": "Pohjois-Pohjanmaa", 
        "country": "Finland", 
        "population_proper": "", 
        "iso2": "FI", 
        "capital": "minor", 
        "lat": "64.666667", 
        "lng": "25.1", 
        "population": ""
    }, 
    {
        "city": "Eura", 
        "admin": "Satakunta", 
        "country": "Finland", 
        "population_proper": "", 
        "iso2": "FI", 
        "capital": "minor", 
        "lat": "61.133333", 
        "lng": "22.133333", 
        "population": ""
    }, 
    {
        "city": "Salla", 
        "admin": "Lappi", 
        "country": "Finland", 
        "population_proper": "", 
        "iso2": "FI", 
        "capital": "minor", 
        "lat": "66.833333", 
        "lng": "28.666667", 
        "population": ""
    }, 
    {
        "city": "Eurajoki", 
        "admin": "Satakunta", 
        "country": "Finland", 
        "population_proper": "", 
        "iso2": "FI", 
        "capital": "minor", 
        "lat": "61.2", 
        "lng": "21.733333", 
        "population": ""
    }, 
    {
        "city": "F\u00f6gl\u00f6", 
        "admin": "\u00c5land", 
        "country": "Finland", 
        "population_proper": "", 
        "iso2": "FI", 
        "capital": "minor", 
        "lat": "60.013033", 
        "lng": "20.427541", 
        "population": ""
    }, 
    {
        "city": "Kimito", 
        "admin": "Varsinais-Suomi", 
        "country": "Finland", 
        "population_proper": "", 
        "iso2": "FI", 
        "capital": "minor", 
        "lat": "60.166667", 
        "lng": "22.75", 
        "population": ""
    }, 
    {
        "city": "Kihni\u00f6", 
        "admin": "Pirkanmaa", 
        "country": "Finland", 
        "population_proper": "", 
        "iso2": "FI", 
        "capital": "minor", 
        "lat": "62.2", 
        "lng": "23.183333", 
        "population": ""
    }, 
    {
        "city": "Posio", 
        "admin": "Lappi", 
        "country": "Finland", 
        "population_proper": "", 
        "iso2": "FI", 
        "capital": "minor", 
        "lat": "66.1", 
        "lng": "28.15", 
        "population": ""
    }, 
    {
        "city": "Lemp\u00e4\u00e4l\u00e4", 
        "admin": "Pirkanmaa", 
        "country": "Finland", 
        "population_proper": "", 
        "iso2": "FI", 
        "capital": "minor", 
        "lat": "61.316667", 
        "lng": "23.75", 
        "population": ""
    }, 
    {
        "city": "Kinnula", 
        "admin": "Keski-Suomi", 
        "country": "Finland", 
        "population_proper": "", 
        "iso2": "FI", 
        "capital": "minor", 
        "lat": "63.366667", 
        "lng": "24.966667", 
        "population": ""
    }, 
    {
        "city": "\u00c5va", 
        "admin": "\u00c5land", 
        "country": "Finland", 
        "population_proper": "", 
        "iso2": "FI", 
        "capital": "minor", 
        "lat": "60.45", 
        "lng": "21.083333", 
        "population": ""
    }, 
    {
        "city": "Utaj\u00e4rvi", 
        "admin": "Pohjois-Pohjanmaa", 
        "country": "Finland", 
        "population_proper": "", 
        "iso2": "FI", 
        "capital": "minor", 
        "lat": "64.75", 
        "lng": "26.383333", 
        "population": ""
    }, 
    {
        "city": "Valtimo", 
        "admin": "Pohjois-Karjala", 
        "country": "Finland", 
        "population_proper": "", 
        "iso2": "FI", 
        "capital": "minor", 
        "lat": "63.666667", 
        "lng": "28.8", 
        "population": ""
    }, 
    {
        "city": "Paimio", 
        "admin": "Varsinais-Suomi", 
        "country": "Finland", 
        "population_proper": "", 
        "iso2": "FI", 
        "capital": "minor", 
        "lat": "60.45", 
        "lng": "22.7", 
        "population": ""
    }, 
    {
        "city": "Karijoki", 
        "admin": "Etel\u00e4-Pohjanmaa", 
        "country": "Finland", 
        "population_proper": "", 
        "iso2": "FI", 
        "capital": "minor", 
        "lat": "62.3", 
        "lng": "21.7", 
        "population": ""
    }, 
    {
        "city": "Keminmaa", 
        "admin": "Lappi", 
        "country": "Finland", 
        "population_proper": "", 
        "iso2": "FI", 
        "capital": "minor", 
        "lat": "65.816667", 
        "lng": "24.533333", 
        "population": ""
    }, 
    {
        "city": "Kolari", 
        "admin": "Lappi", 
        "country": "Finland", 
        "population_proper": "", 
        "iso2": "FI", 
        "capital": "minor", 
        "lat": "67.333333", 
        "lng": "23.8", 
        "population": ""
    }, 
    {
        "city": "Kaavi", 
        "admin": "Pohjois-Savo", 
        "country": "Finland", 
        "population_proper": "", 
        "iso2": "FI", 
        "capital": "minor", 
        "lat": "62.983333", 
        "lng": "28.5", 
        "population": ""
    }, 
    {
        "city": "Mariehamn", 
        "admin": "\u00c5land", 
        "country": "Finland", 
        "population_proper": "", 
        "iso2": "FI", 
        "capital": "admin", 
        "lat": "60.1", 
        "lng": "19.95", 
        "population": ""
    }, 
    {
        "city": "Raisio", 
        "admin": "Varsinais-Suomi", 
        "country": "Finland", 
        "population_proper": "", 
        "iso2": "FI", 
        "capital": "minor", 
        "lat": "60.483333", 
        "lng": "22.183333", 
        "population": ""
    }, 
    {
        "city": "Enonkoski", 
        "admin": "Etel\u00e4-Savo", 
        "country": "Finland", 
        "population_proper": "", 
        "iso2": "FI", 
        "capital": "minor", 
        "lat": "62.083333", 
        "lng": "28.933333", 
        "population": ""
    }, 
    {
        "city": "Korkeakoski", 
        "admin": "Pirkanmaa", 
        "country": "Finland", 
        "population_proper": "", 
        "iso2": "FI", 
        "capital": "minor", 
        "lat": "61.8", 
        "lng": "24.366667", 
        "population": ""
    }, 
    {
        "city": "Kaarina", 
        "admin": "Varsinais-Suomi", 
        "country": "Finland", 
        "population_proper": "", 
        "iso2": "FI", 
        "capital": "minor", 
        "lat": "60.416667", 
        "lng": "22.416667", 
        "population": ""
    }, 
    {
        "city": "Orivesi", 
        "admin": "Pirkanmaa", 
        "country": "Finland", 
        "population_proper": "", 
        "iso2": "FI", 
        "capital": "minor", 
        "lat": "61.683333", 
        "lng": "24.35", 
        "population": ""
    }, 
    {
        "city": "M\u00e4ntyharju", 
        "admin": "Etel\u00e4-Savo", 
        "country": "Finland", 
        "population_proper": "", 
        "iso2": "FI", 
        "capital": "minor", 
        "lat": "61.416667", 
        "lng": "26.883333", 
        "population": ""
    }, 
    {
        "city": "Alaj\u00e4rvi", 
        "admin": "Etel\u00e4-Pohjanmaa", 
        "country": "Finland", 
        "population_proper": "", 
        "iso2": "FI", 
        "capital": "minor", 
        "lat": "63.0", 
        "lng": "23.816667", 
        "population": ""
    }, 
    {
        "city": "Puolanka", 
        "admin": "Kainuu", 
        "country": "Finland", 
        "population_proper": "", 
        "iso2": "FI", 
        "capital": "minor", 
        "lat": "64.866667", 
        "lng": "27.666667", 
        "population": ""
    }, 
    {
        "city": "Virolahti", 
        "admin": "Kymenlaakso", 
        "country": "Finland", 
        "population_proper": "", 
        "iso2": "FI", 
        "capital": "minor", 
        "lat": "60.516667", 
        "lng": "27.683056", 
        "population": ""
    }, 
    {
        "city": "Tyrn\u00e4v\u00e4", 
        "admin": "Pohjois-Pohjanmaa", 
        "country": "Finland", 
        "population_proper": "", 
        "iso2": "FI", 
        "capital": "minor", 
        "lat": "64.766667", 
        "lng": "25.65", 
        "population": ""
    }, 
    {
        "city": "Heinola", 
        "admin": "P\u00e4ij\u00e4t-H\u00e4me", 
        "country": "Finland", 
        "population_proper": "", 
        "iso2": "FI", 
        "capital": "minor", 
        "lat": "61.216667", 
        "lng": "26.033333", 
        "population": ""
    }, 
    {
        "city": "\u00c4ht\u00e4ri", 
        "admin": "Etel\u00e4-Pohjanmaa", 
        "country": "Finland", 
        "population_proper": "", 
        "iso2": "FI", 
        "capital": "minor", 
        "lat": "62.566667", 
        "lng": "24.1", 
        "population": ""
    }, 
    {
        "city": "Siltakyl\u00e4", 
        "admin": "Kymenlaakso", 
        "country": "Finland", 
        "population_proper": "", 
        "iso2": "FI", 
        "capital": "minor", 
        "lat": "60.5", 
        "lng": "26.716667", 
        "population": ""
    }, 
    {
        "city": "Oitti", 
        "admin": "Kanta-H\u00e4me", 
        "country": "Finland", 
        "population_proper": "", 
        "iso2": "FI", 
        "capital": "minor", 
        "lat": "60.783333", 
        "lng": "25.033333", 
        "population": ""
    }, 
    {
        "city": "Marttila", 
        "admin": "Varsinais-Suomi", 
        "country": "Finland", 
        "population_proper": "", 
        "iso2": "FI", 
        "capital": "minor", 
        "lat": "60.583333", 
        "lng": "22.9", 
        "population": ""
    }, 
    {
        "city": "Vesanto", 
        "admin": "Pohjois-Savo", 
        "country": "Finland", 
        "population_proper": "", 
        "iso2": "FI", 
        "capital": "minor", 
        "lat": "62.933333", 
        "lng": "26.416667", 
        "population": ""
    }, 
    {
        "city": "Kerava", 
        "admin": "Uusimaa", 
        "country": "Finland", 
        "population_proper": "", 
        "iso2": "FI", 
        "capital": "minor", 
        "lat": "60.4", 
        "lng": "25.116667", 
        "population": ""
    }, 
    {
        "city": "Ulvila", 
        "admin": "Satakunta", 
        "country": "Finland", 
        "population_proper": "", 
        "iso2": "FI", 
        "capital": "minor", 
        "lat": "61.433333", 
        "lng": "21.883333", 
        "population": ""
    }, 
    {
        "city": "Padasjoki", 
        "admin": "P\u00e4ij\u00e4t-H\u00e4me", 
        "country": "Finland", 
        "population_proper": "", 
        "iso2": "FI", 
        "capital": "minor", 
        "lat": "61.35", 
        "lng": "25.283333", 
        "population": ""
    }, 
    {
        "city": "Juankoski", 
        "admin": "Pohjois-Savo", 
        "country": "Finland", 
        "population_proper": "", 
        "iso2": "FI", 
        "capital": "minor", 
        "lat": "63.066667", 
        "lng": "28.35", 
        "population": ""
    }, 
    {
        "city": "Espoo", 
        "admin": "Uusimaa", 
        "country": "Finland", 
        "population_proper": "", 
        "iso2": "FI", 
        "capital": "minor", 
        "lat": "60.216667", 
        "lng": "24.666667", 
        "population": ""
    }, 
    {
        "city": "Parkano", 
        "admin": "Pirkanmaa", 
        "country": "Finland", 
        "population_proper": "", 
        "iso2": "FI", 
        "capital": "minor", 
        "lat": "62.016667", 
        "lng": "23.016667", 
        "population": ""
    }, 
    {
        "city": "Merikarvia", 
        "admin": "Satakunta", 
        "country": "Finland", 
        "population_proper": "", 
        "iso2": "FI", 
        "capital": "minor", 
        "lat": "61.85", 
        "lng": "21.5", 
        "population": ""
    }, 
    {
        "city": "Raahe", 
        "admin": "Pohjois-Pohjanmaa", 
        "country": "Finland", 
        "population_proper": "", 
        "iso2": "FI", 
        "capital": "minor", 
        "lat": "64.683333", 
        "lng": "24.483333", 
        "population": ""
    }, 
    {
        "city": "Tervo", 
        "admin": "Pohjois-Savo", 
        "country": "Finland", 
        "population_proper": "", 
        "iso2": "FI", 
        "capital": "minor", 
        "lat": "62.95", 
        "lng": "26.75", 
        "population": ""
    }, 
    {
        "city": "Lapinlahti", 
        "admin": "Pohjois-Savo", 
        "country": "Finland", 
        "population_proper": "", 
        "iso2": "FI", 
        "capital": "minor", 
        "lat": "63.366667", 
        "lng": "27.4", 
        "population": ""
    }, 
    {
        "city": "Viitasaari", 
        "admin": "Keski-Suomi", 
        "country": "Finland", 
        "population_proper": "", 
        "iso2": "FI", 
        "capital": "minor", 
        "lat": "63.066667", 
        "lng": "25.866667", 
        "population": ""
    }, 
    {
        "city": "Vesilahti", 
        "admin": "Pirkanmaa", 
        "country": "Finland", 
        "population_proper": "", 
        "iso2": "FI", 
        "capital": "minor", 
        "lat": "61.316667", 
        "lng": "23.616667", 
        "population": ""
    }, 
    {
        "city": "Sotkamo", 
        "admin": "Kainuu", 
        "country": "Finland", 
        "population_proper": "", 
        "iso2": "FI", 
        "capital": "minor", 
        "lat": "64.133333", 
        "lng": "28.416667", 
        "population": ""
    }, 
    {
        "city": "Sauvo", 
        "admin": "Varsinais-Suomi", 
        "country": "Finland", 
        "population_proper": "", 
        "iso2": "FI", 
        "capital": "minor", 
        "lat": "60.35", 
        "lng": "22.7", 
        "population": ""
    }, 
    {
        "city": "Ylivieska", 
        "admin": "Pohjois-Pohjanmaa", 
        "country": "Finland", 
        "population_proper": "", 
        "iso2": "FI", 
        "capital": "minor", 
        "lat": "64.083333", 
        "lng": "24.55", 
        "population": ""
    }, 
    {
        "city": "Vinkkil\u00e4", 
        "admin": "Varsinais-Suomi", 
        "country": "Finland", 
        "population_proper": "", 
        "iso2": "FI", 
        "capital": "minor", 
        "lat": "60.683333", 
        "lng": "21.716667", 
        "population": ""
    }, 
    {
        "city": "Pyh\u00e4nt\u00e4", 
        "admin": "Pohjois-Pohjanmaa", 
        "country": "Finland", 
        "population_proper": "", 
        "iso2": "FI", 
        "capital": "minor", 
        "lat": "64.1", 
        "lng": "26.316667", 
        "population": ""
    }, 
    {
        "city": "Pyh\u00e4salmi", 
        "admin": "Pohjois-Pohjanmaa", 
        "country": "Finland", 
        "population_proper": "", 
        "iso2": "FI", 
        "capital": "minor", 
        "lat": "63.683333", 
        "lng": "25.983333", 
        "population": ""
    }, 
    {
        "city": "Miehikk\u00e4l\u00e4", 
        "admin": "Kymenlaakso", 
        "country": "Finland", 
        "population_proper": "", 
        "iso2": "FI", 
        "capital": "minor", 
        "lat": "60.666667", 
        "lng": "27.7", 
        "population": ""
    }, 
    {
        "city": "Valkeakoski", 
        "admin": "Pirkanmaa", 
        "country": "Finland", 
        "population_proper": "", 
        "iso2": "FI", 
        "capital": "minor", 
        "lat": "61.266667", 
        "lng": "24.033333", 
        "population": ""
    }, 
    {
        "city": "Yl\u00f6j\u00e4rvi", 
        "admin": "Pirkanmaa", 
        "country": "Finland", 
        "population_proper": "", 
        "iso2": "FI", 
        "capital": "minor", 
        "lat": "61.55", 
        "lng": "23.6", 
        "population": ""
    }, 
    {
        "city": "Juuka", 
        "admin": "Pohjois-Karjala", 
        "country": "Finland", 
        "population_proper": "", 
        "iso2": "FI", 
        "capital": "minor", 
        "lat": "63.233333", 
        "lng": "29.25", 
        "population": ""
    }, 
    {
        "city": "Ylitornio", 
        "admin": "Lappi", 
        "country": "Finland", 
        "population_proper": "", 
        "iso2": "FI", 
        "capital": "minor", 
        "lat": "66.316779", 
        "lng": "23.680747", 
        "population": ""
    }, 
    {
        "city": "Pomarkku", 
        "admin": "Satakunta", 
        "country": "Finland", 
        "population_proper": "", 
        "iso2": "FI", 
        "capital": "minor", 
        "lat": "61.7", 
        "lng": "22.0", 
        "population": ""
    }, 
    {
        "city": "Somero", 
        "admin": "Varsinais-Suomi", 
        "country": "Finland", 
        "population_proper": "", 
        "iso2": "FI", 
        "capital": "minor", 
        "lat": "60.616667", 
        "lng": "23.533333", 
        "population": ""
    }, 
    {
        "city": "R\u00e4\u00e4kkyl\u00e4", 
        "admin": "Pohjois-Karjala", 
        "country": "Finland", 
        "population_proper": "", 
        "iso2": "FI", 
        "capital": "minor", 
        "lat": "62.316667", 
        "lng": "29.616667", 
        "population": ""
    }, 
    {
        "city": "Nykarleby", 
        "admin": "Pohjanmaa", 
        "country": "Finland", 
        "population_proper": "", 
        "iso2": "FI", 
        "capital": "minor", 
        "lat": "63.533333", 
        "lng": "22.533333", 
        "population": ""
    }, 
    {
        "city": "Lavia", 
        "admin": "Satakunta", 
        "country": "Finland", 
        "population_proper": "", 
        "iso2": "FI", 
        "capital": "minor", 
        "lat": "61.6", 
        "lng": "22.6", 
        "population": ""
    }, 
    {
        "city": "Taavetti", 
        "admin": "Etel\u00e4-Karjala", 
        "country": "Finland", 
        "population_proper": "", 
        "iso2": "FI", 
        "capital": "minor", 
        "lat": "60.916667", 
        "lng": "27.566667", 
        "population": ""
    }
]