[
    {
        "city": "Bratislava", 
        "admin": "Bratislavsk\u00fd", 
        "country": "Slovakia", 
        "population_proper": "373687", 
        "iso2": "SK", 
        "capital": "primary", 
        "lat": "48.15", 
        "lng": "17.116667", 
        "population": "423737"
    }, 
    {
        "city": "Ko\u0161ice", 
        "admin": "Ko\u0161ick\u00fd", 
        "country": "Slovakia", 
        "population_proper": "184070", 
        "iso2": "SK", 
        "capital": "admin", 
        "lat": "48.713946", 
        "lng": "21.258084", 
        "population": "236563"
    }, 
    {
        "city": "Pre\u0161ov", 
        "admin": "Pre\u0161ovsk\u00fd", 
        "country": "Slovakia", 
        "population_proper": "76019", 
        "iso2": "SK", 
        "capital": "admin", 
        "lat": "48.998394", 
        "lng": "21.233934", 
        "population": "94718"
    }, 
    {
        "city": "\u017dilina", 
        "admin": "\u017dilinsk\u00fd", 
        "country": "Slovakia", 
        "population_proper": "85985", 
        "iso2": "SK", 
        "capital": "admin", 
        "lat": "49.216667", 
        "lng": "18.733333", 
        "population": "87625"
    }, 
    {
        "city": "Bansk\u00e1 Bystrica", 
        "admin": "Banskobystrick\u00fd", 
        "country": "Slovakia", 
        "population_proper": "79232", 
        "iso2": "SK", 
        "capital": "admin", 
        "lat": "48.739464", 
        "lng": "19.153489", 
        "population": "82336"
    }, 
    {
        "city": "Trnava", 
        "admin": "Trnavsk\u00fd", 
        "country": "Slovakia", 
        "population_proper": "52053", 
        "iso2": "SK", 
        "capital": "admin", 
        "lat": "48.377405", 
        "lng": "17.587226", 
        "population": "69785"
    }, 
    {
        "city": "Zvolen", 
        "admin": "Banskobystrick\u00fd", 
        "country": "Slovakia", 
        "population_proper": "32051", 
        "iso2": "SK", 
        "capital": "minor", 
        "lat": "48.57442", 
        "lng": "19.153236", 
        "population": "44502"
    }, 
    {
        "city": "Vranov nad Top\u013eou", 
        "admin": "Pre\u0161ovsk\u00fd", 
        "country": "Slovakia", 
        "population_proper": "", 
        "iso2": "SK", 
        "capital": "minor", 
        "lat": "48.888356", 
        "lng": "21.684794", 
        "population": ""
    }, 
    {
        "city": "B\u00e1novce nad Bebravou", 
        "admin": "Nitriansky", 
        "country": "Slovakia", 
        "population_proper": "", 
        "iso2": "SK", 
        "capital": "minor", 
        "lat": "48.7213", 
        "lng": "18.257539", 
        "population": ""
    }, 
    {
        "city": "Byt\u010da", 
        "admin": "\u017dilinsk\u00fd", 
        "country": "Slovakia", 
        "population_proper": "", 
        "iso2": "SK", 
        "capital": "minor", 
        "lat": "49.224045", 
        "lng": "18.558779", 
        "population": ""
    }, 
    {
        "city": "Trebi\u0161ov", 
        "admin": "Ko\u0161ick\u00fd", 
        "country": "Slovakia", 
        "population_proper": "", 
        "iso2": "SK", 
        "capital": "minor", 
        "lat": "48.628579", 
        "lng": "21.719535", 
        "population": ""
    }, 
    {
        "city": "Kom\u00e1rno", 
        "admin": "Nitriansky", 
        "country": "Slovakia", 
        "population_proper": "", 
        "iso2": "SK", 
        "capital": "minor", 
        "lat": "48.116667", 
        "lng": "18.316667", 
        "population": ""
    }, 
    {
        "city": "Tren\u010d\u00edn", 
        "admin": "Tren\u010diansky", 
        "country": "Slovakia", 
        "population_proper": "", 
        "iso2": "SK", 
        "capital": "admin", 
        "lat": "48.886715", 
        "lng": "18.047991", 
        "population": ""
    }, 
    {
        "city": "Ru\u017eomberok", 
        "admin": "\u017dilinsk\u00fd", 
        "country": "Slovakia", 
        "population_proper": "", 
        "iso2": "SK", 
        "capital": "minor", 
        "lat": "49.074797", 
        "lng": "19.307509", 
        "population": ""
    }, 
    {
        "city": "Zlat\u00e9 Moravce", 
        "admin": "Nitriansky", 
        "country": "Slovakia", 
        "population_proper": "", 
        "iso2": "SK", 
        "capital": "minor", 
        "lat": "48.385528", 
        "lng": "18.40063", 
        "population": ""
    }, 
    {
        "city": "Gelnica", 
        "admin": "Ko\u0161ick\u00fd", 
        "country": "Slovakia", 
        "population_proper": "", 
        "iso2": "SK", 
        "capital": "minor", 
        "lat": "48.855843", 
        "lng": "20.937125", 
        "population": ""
    }, 
    {
        "city": "\u010cadca", 
        "admin": "\u017dilinsk\u00fd", 
        "country": "Slovakia", 
        "population_proper": "", 
        "iso2": "SK", 
        "capital": "minor", 
        "lat": "49.435031", 
        "lng": "18.788947", 
        "population": ""
    }, 
    {
        "city": "Michalovce", 
        "admin": "Ko\u0161ick\u00fd", 
        "country": "Slovakia", 
        "population_proper": "", 
        "iso2": "SK", 
        "capital": "minor", 
        "lat": "48.754336", 
        "lng": "21.919495", 
        "population": ""
    }, 
    {
        "city": "Snina", 
        "admin": "Pre\u0161ovsk\u00fd", 
        "country": "Slovakia", 
        "population_proper": "", 
        "iso2": "SK", 
        "capital": "minor", 
        "lat": "48.988566", 
        "lng": "22.150987", 
        "population": ""
    }, 
    {
        "city": "Tvrdo\u0161\u00edn", 
        "admin": "\u017dilinsk\u00fd", 
        "country": "Slovakia", 
        "population_proper": "", 
        "iso2": "SK", 
        "capital": "minor", 
        "lat": "49.337004", 
        "lng": "19.555999", 
        "population": ""
    }, 
    {
        "city": "Bansk\u00e1 \u0160tiavnica", 
        "admin": "Banskobystrick\u00fd", 
        "country": "Slovakia", 
        "population_proper": "", 
        "iso2": "SK", 
        "capital": "minor", 
        "lat": "48.44858", 
        "lng": "18.910028", 
        "population": ""
    }, 
    {
        "city": "Brezno", 
        "admin": "Banskobystrick\u00fd", 
        "country": "Slovakia", 
        "population_proper": "", 
        "iso2": "SK", 
        "capital": "minor", 
        "lat": "48.804308", 
        "lng": "19.636313", 
        "population": ""
    }, 
    {
        "city": "Sobrance", 
        "admin": "Ko\u0161ick\u00fd", 
        "country": "Slovakia", 
        "population_proper": "", 
        "iso2": "SK", 
        "capital": "minor", 
        "lat": "48.74455", 
        "lng": "22.181364", 
        "population": ""
    }, 
    {
        "city": "Ke\u017emarok", 
        "admin": "Pre\u0161ovsk\u00fd", 
        "country": "Slovakia", 
        "population_proper": "", 
        "iso2": "SK", 
        "capital": "minor", 
        "lat": "49.135705", 
        "lng": "20.433525", 
        "population": ""
    }, 
    {
        "city": "Ro\u017e\u0148ava", 
        "admin": "Ko\u0161ick\u00fd", 
        "country": "Slovakia", 
        "population_proper": "", 
        "iso2": "SK", 
        "capital": "minor", 
        "lat": "48.660085", 
        "lng": "20.537577", 
        "population": ""
    }, 
    {
        "city": "Topo\u013e\u010dany", 
        "admin": "Nitriansky", 
        "country": "Slovakia", 
        "population_proper": "", 
        "iso2": "SK", 
        "capital": "minor", 
        "lat": "48.563615", 
        "lng": "18.167119", 
        "population": ""
    }, 
    {
        "city": "Ve\u013ek\u00fd Krt\u00ed\u0161", 
        "admin": "Banskobystrick\u00fd", 
        "country": "Slovakia", 
        "population_proper": "", 
        "iso2": "SK", 
        "capital": "minor", 
        "lat": "48.210585", 
        "lng": "19.35043", 
        "population": ""
    }, 
    {
        "city": "Senec", 
        "admin": "Bratislavsk\u00fd", 
        "country": "Slovakia", 
        "population_proper": "", 
        "iso2": "SK", 
        "capital": "minor", 
        "lat": "48.219513", 
        "lng": "17.40043", 
        "population": ""
    }, 
    {
        "city": "Star\u00e1 \u013dubov\u0148a", 
        "admin": "Pre\u0161ovsk\u00fd", 
        "country": "Slovakia", 
        "population_proper": "", 
        "iso2": "SK", 
        "capital": "minor", 
        "lat": "49.298593", 
        "lng": "20.686201", 
        "population": ""
    }, 
    {
        "city": "Senica", 
        "admin": "Trnavsk\u00fd", 
        "country": "Slovakia", 
        "population_proper": "", 
        "iso2": "SK", 
        "capital": "minor", 
        "lat": "48.679219", 
        "lng": "17.366974", 
        "population": ""
    }, 
    {
        "city": "Spi\u0161sk\u00e1 Nov\u00e1 Ves", 
        "admin": "Ko\u0161ick\u00fd", 
        "country": "Slovakia", 
        "population_proper": "", 
        "iso2": "SK", 
        "capital": "minor", 
        "lat": "48.94464", 
        "lng": "20.561535", 
        "population": ""
    }, 
    {
        "city": "Nitra", 
        "admin": "Nitriansky", 
        "country": "Slovakia", 
        "population_proper": "", 
        "iso2": "SK", 
        "capital": "admin", 
        "lat": "48.309029", 
        "lng": "18.087314", 
        "population": ""
    }, 
    {
        "city": "Medzilaborce", 
        "admin": "Pre\u0161ovsk\u00fd", 
        "country": "Slovakia", 
        "population_proper": "", 
        "iso2": "SK", 
        "capital": "minor", 
        "lat": "49.272517", 
        "lng": "21.903322", 
        "population": ""
    }, 
    {
        "city": "Pova\u017esk\u00e1 Bystrica", 
        "admin": "Nitriansky", 
        "country": "Slovakia", 
        "population_proper": "", 
        "iso2": "SK", 
        "capital": "minor", 
        "lat": "49.121534", 
        "lng": "18.421693", 
        "population": ""
    }, 
    {
        "city": "Svidn\u00edk", 
        "admin": "Pre\u0161ovsk\u00fd", 
        "country": "Slovakia", 
        "population_proper": "", 
        "iso2": "SK", 
        "capital": "minor", 
        "lat": "49.308186", 
        "lng": "21.570295", 
        "population": ""
    }, 
    {
        "city": "Pezinok", 
        "admin": "Bratislavsk\u00fd", 
        "country": "Slovakia", 
        "population_proper": "", 
        "iso2": "SK", 
        "capital": "minor", 
        "lat": "48.289857", 
        "lng": "17.266639", 
        "population": ""
    }, 
    {
        "city": "Kysuck\u00e9 Nov\u00e9 Mesto", 
        "admin": "\u017dilinsk\u00fd", 
        "country": "Slovakia", 
        "population_proper": "", 
        "iso2": "SK", 
        "capital": "minor", 
        "lat": "49.3", 
        "lng": "18.783333", 
        "population": ""
    }, 
    {
        "city": "Humenn\u00e9", 
        "admin": "Pre\u0161ovsk\u00fd", 
        "country": "Slovakia", 
        "population_proper": "", 
        "iso2": "SK", 
        "capital": "minor", 
        "lat": "48.937069", 
        "lng": "21.91625", 
        "population": ""
    }, 
    {
        "city": "Malacky", 
        "admin": "Bratislavsk\u00fd", 
        "country": "Slovakia", 
        "population_proper": "", 
        "iso2": "SK", 
        "capital": "minor", 
        "lat": "48.436037", 
        "lng": "17.02188", 
        "population": ""
    }, 
    {
        "city": "Ilava", 
        "admin": "Nitriansky", 
        "country": "Slovakia", 
        "population_proper": "", 
        "iso2": "SK", 
        "capital": "minor", 
        "lat": "48.997687", 
        "lng": "18.235299", 
        "population": ""
    }, 
    {
        "city": "Lu\u010denec", 
        "admin": "Banskobystrick\u00fd", 
        "country": "Slovakia", 
        "population_proper": "", 
        "iso2": "SK", 
        "capital": "minor", 
        "lat": "48.332486", 
        "lng": "19.667077", 
        "population": ""
    }, 
    {
        "city": "Myjava", 
        "admin": "Nitriansky", 
        "country": "Slovakia", 
        "population_proper": "", 
        "iso2": "SK", 
        "capital": "minor", 
        "lat": "48.758762", 
        "lng": "17.56866", 
        "population": ""
    }, 
    {
        "city": "Nov\u00e9 Mesto nad V\u00e1hom", 
        "admin": "Nitriansky", 
        "country": "Slovakia", 
        "population_proper": "", 
        "iso2": "SK", 
        "capital": "minor", 
        "lat": "48.7552", 
        "lng": "17.830766", 
        "population": ""
    }, 
    {
        "city": "Nov\u00e9 Z\u00e1mky", 
        "admin": "Nitriansky", 
        "country": "Slovakia", 
        "population_proper": "", 
        "iso2": "SK", 
        "capital": "minor", 
        "lat": "47.989872", 
        "lng": "18.166567", 
        "population": ""
    }, 
    {
        "city": "Martin", 
        "admin": "\u017dilinsk\u00fd", 
        "country": "Slovakia", 
        "population_proper": "", 
        "iso2": "SK", 
        "capital": "minor", 
        "lat": "49.066508", 
        "lng": "18.92399", 
        "population": ""
    }, 
    {
        "city": "Poprad", 
        "admin": "Pre\u0161ovsk\u00fd", 
        "country": "Slovakia", 
        "population_proper": "", 
        "iso2": "SK", 
        "capital": "minor", 
        "lat": "49.061442", 
        "lng": "20.297984", 
        "population": ""
    }, 
    {
        "city": "Skalica", 
        "admin": "Trnavsk\u00fd", 
        "country": "Slovakia", 
        "population_proper": "", 
        "iso2": "SK", 
        "capital": "minor", 
        "lat": "48.844901", 
        "lng": "17.226353", 
        "population": ""
    }, 
    {
        "city": "Sabinov", 
        "admin": "Pre\u0161ovsk\u00fd", 
        "country": "Slovakia", 
        "population_proper": "", 
        "iso2": "SK", 
        "capital": "minor", 
        "lat": "49.103085", 
        "lng": "21.098796", 
        "population": ""
    }, 
    {
        "city": "Krupina", 
        "admin": "Banskobystrick\u00fd", 
        "country": "Slovakia", 
        "population_proper": "", 
        "iso2": "SK", 
        "capital": "minor", 
        "lat": "48.355404", 
        "lng": "19.064739", 
        "population": ""
    }, 
    {
        "city": "Bardejov", 
        "admin": "Pre\u0161ovsk\u00fd", 
        "country": "Slovakia", 
        "population_proper": "", 
        "iso2": "SK", 
        "capital": "minor", 
        "lat": "49.291754", 
        "lng": "21.272714", 
        "population": ""
    }, 
    {
        "city": "Rev\u00faca", 
        "admin": "Banskobystrick\u00fd", 
        "country": "Slovakia", 
        "population_proper": "", 
        "iso2": "SK", 
        "capital": "minor", 
        "lat": "48.683459", 
        "lng": "20.117341", 
        "population": ""
    }, 
    {
        "city": "Polt\u00e1r", 
        "admin": "Banskobystrick\u00fd", 
        "country": "Slovakia", 
        "population_proper": "", 
        "iso2": "SK", 
        "capital": "minor", 
        "lat": "48.430939", 
        "lng": "19.794083", 
        "population": ""
    }, 
    {
        "city": "Galanta", 
        "admin": "Trnavsk\u00fd", 
        "country": "Slovakia", 
        "population_proper": "", 
        "iso2": "SK", 
        "capital": "minor", 
        "lat": "48.1913", 
        "lng": "17.728848", 
        "population": ""
    }, 
    {
        "city": "\u0160a\u013ea", 
        "admin": "Nitriansky", 
        "country": "Slovakia", 
        "population_proper": "", 
        "iso2": "SK", 
        "capital": "minor", 
        "lat": "48.151269", 
        "lng": "17.880623", 
        "population": ""
    }, 
    {
        "city": "P\u00fachov", 
        "admin": "Nitriansky", 
        "country": "Slovakia", 
        "population_proper": "", 
        "iso2": "SK", 
        "capital": "minor", 
        "lat": "49.124942", 
        "lng": "18.325965", 
        "population": ""
    }, 
    {
        "city": "Rimavsk\u00e1 Sobota", 
        "admin": "Banskobystrick\u00fd", 
        "country": "Slovakia", 
        "population_proper": "", 
        "iso2": "SK", 
        "capital": "minor", 
        "lat": "48.382838", 
        "lng": "20.022395", 
        "population": ""
    }, 
    {
        "city": "Dunajsk\u00e1 Streda", 
        "admin": "Trnavsk\u00fd", 
        "country": "Slovakia", 
        "population_proper": "", 
        "iso2": "SK", 
        "capital": "minor", 
        "lat": "47.996525", 
        "lng": "17.612295", 
        "population": ""
    }, 
    {
        "city": "Detva", 
        "admin": "Banskobystrick\u00fd", 
        "country": "Slovakia", 
        "population_proper": "", 
        "iso2": "SK", 
        "capital": "minor", 
        "lat": "48.560688", 
        "lng": "19.420135", 
        "population": ""
    }, 
    {
        "city": "Hlohovec", 
        "admin": "Trnavsk\u00fd", 
        "country": "Slovakia", 
        "population_proper": "", 
        "iso2": "SK", 
        "capital": "minor", 
        "lat": "48.431744", 
        "lng": "17.803097", 
        "population": ""
    }, 
    {
        "city": "Levice", 
        "admin": "Nitriansky", 
        "country": "Slovakia", 
        "population_proper": "", 
        "iso2": "SK", 
        "capital": "minor", 
        "lat": "48.215628", 
        "lng": "18.607046", 
        "population": ""
    }, 
    {
        "city": "Prievidza", 
        "admin": "Nitriansky", 
        "country": "Slovakia", 
        "population_proper": "", 
        "iso2": "SK", 
        "capital": "minor", 
        "lat": "48.77446", 
        "lng": "18.627498", 
        "population": ""
    }, 
    {
        "city": "Stropkov", 
        "admin": "Pre\u0161ovsk\u00fd", 
        "country": "Slovakia", 
        "population_proper": "", 
        "iso2": "SK", 
        "capital": "minor", 
        "lat": "49.202109", 
        "lng": "21.652158", 
        "population": ""
    }, 
    {
        "city": "N\u00e1mestovo", 
        "admin": "\u017dilinsk\u00fd", 
        "country": "Slovakia", 
        "population_proper": "", 
        "iso2": "SK", 
        "capital": "minor", 
        "lat": "49.407898", 
        "lng": "19.480324", 
        "population": ""
    }, 
    {
        "city": "Tur\u010dianske Teplice", 
        "admin": "\u017dilinsk\u00fd", 
        "country": "Slovakia", 
        "population_proper": "", 
        "iso2": "SK", 
        "capital": "minor", 
        "lat": "48.862255", 
        "lng": "18.860479", 
        "population": ""
    }, 
    {
        "city": "\u017diar nad Hronom", 
        "admin": "Banskobystrick\u00fd", 
        "country": "Slovakia", 
        "population_proper": "", 
        "iso2": "SK", 
        "capital": "minor", 
        "lat": "48.591835", 
        "lng": "18.849577", 
        "population": ""
    }, 
    {
        "city": "Levo\u010da", 
        "admin": "Pre\u0161ovsk\u00fd", 
        "country": "Slovakia", 
        "population_proper": "", 
        "iso2": "SK", 
        "capital": "minor", 
        "lat": "49.021728", 
        "lng": "20.592122", 
        "population": ""
    }, 
    {
        "city": "Doln\u00fd Kub\u00edn", 
        "admin": "\u017dilinsk\u00fd", 
        "country": "Slovakia", 
        "population_proper": "", 
        "iso2": "SK", 
        "capital": "minor", 
        "lat": "49.209827", 
        "lng": "19.303408", 
        "population": ""
    }, 
    {
        "city": "Liptovsk\u00fd Mikul\u00e1\u0161", 
        "admin": "\u017dilinsk\u00fd", 
        "country": "Slovakia", 
        "population_proper": "", 
        "iso2": "SK", 
        "capital": "minor", 
        "lat": "49.084418", 
        "lng": "19.612004", 
        "population": ""
    }, 
    {
        "city": "\u017darnovica", 
        "admin": "Banskobystrick\u00fd", 
        "country": "Slovakia", 
        "population_proper": "", 
        "iso2": "SK", 
        "capital": "minor", 
        "lat": "48.481235", 
        "lng": "18.715649", 
        "population": ""
    }, 
    {
        "city": "Partiz\u00e1nske", 
        "admin": "Nitriansky", 
        "country": "Slovakia", 
        "population_proper": "", 
        "iso2": "SK", 
        "capital": "minor", 
        "lat": "48.628607", 
        "lng": "18.384555", 
        "population": ""
    }, 
    {
        "city": "Pie\u0161\u0165any", 
        "admin": "Trnavsk\u00fd", 
        "country": "Slovakia", 
        "population_proper": "", 
        "iso2": "SK", 
        "capital": "minor", 
        "lat": "48.594791", 
        "lng": "17.825908", 
        "population": ""
    }
]